[
  {
    "name": "경기 의왕시더샵캐슬작은도서관",
    "address": "경기도 의왕시 어내들로 5 의왕더샵캐슬작은도서관 ",
    "lat": 37.3614700440754,
    "lng": 126.963204384672,
    "region1": "경기도",
    "region2": "의왕시",
    "region3": "오전동"
  },
  {
    "name": "전북 군산회현작은도서관",
    "address": "전북특별자치도 군산시 회현면 회현로 181 ",
    "lat": 35.9134775649454,
    "lng": 126.756955624794,
    "region1": "전북특별자치도",
    "region2": "군산시",
    "region3": "회현면"
  },
  {
    "name": "전북 군산개정작은도서관",
    "address": "전북특별자치도 군산시 번영로 329 ",
    "lat": 35.9640540052284,
    "lng": 126.753200928529,
    "region1": "전북특별자치도",
    "region2": "군산시",
    "region3": "사정동"
  },
  {
    "name": "전북 군산중동작은도서관",
    "address": "전북특별자치도 군산시 서래안 2길 22 ",
    "lat": 35.9833715721642,
    "lng": 126.726494607782,
    "region1": "전북특별자치도",
    "region2": "군산시",
    "region3": "중동"
  },
  {
    "name": "전북 군산성산작은도서관",
    "address": "전북특별자치도 군산시 성산면 송호로 220  ",
    "lat": 35.9894492312666,
    "lng": 126.785883927007,
    "region1": "전북특별자치도",
    "region2": "군산시",
    "region3": "성산면"
  },
  {
    "name": "전북 군산서수작은도서관",
    "address": "전북특별자치도 군산시 서수면 탑천로 596 ",
    "lat": 35.9812114012105,
    "lng": 126.877845330966,
    "region1": "전북특별자치도",
    "region2": "군산시",
    "region3": "서수면"
  },
  {
    "name": "전북 군산산단작은도서관",
    "address": "전북특별자치도 군산시 분멀 3길 23 ",
    "lat": 35.96416878263,
    "lng": 126.569690156718,
    "region1": "전북특별자치도",
    "region2": "군산시",
    "region3": "오식도동"
  },
  {
    "name": "세종 세종특별자치시교육청평생교육원",
    "address": "세종특별자치시 산울3로 124 세종특별자치시교육청평생교육원 ",
    "lat": 36.5347624723737,
    "lng": 127.263995217802,
    "region1": "세종특별자치시",
    "region2": "",
    "region3": "산울동"
  },
  {
    "name": "경기 이천시립서희도서관",
    "address": "경기도 이천시 애련정로 29 ",
    "lat": 37.2772792842531,
    "lng": 127.456605668777,
    "region1": "경기도",
    "region2": "이천시",
    "region3": "안흥동"
  },
  {
    "name": "경기 경기도서관",
    "address": "경기도 수원시 영통구 도청로 40 ",
    "lat": 37.2879137909729,
    "lng": 127.05332487596,
    "region1": "경기도",
    "region2": "수원시 영통구",
    "region3": "이의동"
  },
  {
    "name": "경남 고성책둠벙도서관",
    "address": "경상남도  고성군 고성읍 교사리 53 ",
    "lat": 34.9760496025241,
    "lng": 128.314140674974,
    "region1": "경상남도",
    "region2": "고성군",
    "region3": "고성읍"
  },
  {
    "name": "경기 하남시감일도서관",
    "address": "경기도 하남시 감이동451 감일도서관 ",
    "lat": 37.5086114651779,
    "lng": 127.159520887327,
    "region1": "경기도",
    "region2": "하남시",
    "region3": "감이동"
  },
  {
    "name": "경기 광주신현도서관",
    "address": "경기도 광주시 머루숯길 70, 신현도서관 ",
    "lat": 37.3652152385867,
    "lng": 127.15843632077,
    "region1": "경기도",
    "region2": "광주시",
    "region3": "신현동"
  },
  {
    "name": "대구 대구도서관",
    "address": "대구광역시 남구 중앙대로22길 26 ",
    "lat": 35.8424501637786,
    "lng": 128.591869694299,
    "region1": "대구광역시",
    "region2": "남구",
    "region3": "대명동"
  },
  {
    "name": "부산 서구아미드림도서관",
    "address": "부산광역시 서구 까치고개로 80번길 10 ",
    "lat": 35.1036229538683,
    "lng": 129.009263868242,
    "region1": "부산광역시",
    "region2": "서구",
    "region3": "아미동2가"
  },
  {
    "name": "울산 어린이독서체험관",
    "address": "울산광역시 북구 동해안로 861 울산어린이독서체험관 ",
    "lat": 35.5819352663518,
    "lng": 129.454714146433,
    "region1": "울산광역시",
    "region2": "북구",
    "region3": "당사동"
  },
  {
    "name": "충북 옥천가양도서관",
    "address": "충청북도 옥천군 옥천읍 가화4길 58 옥천가양복합문화센터 가양도서관 ",
    "lat": 36.3016011363162,
    "lng": 127.559989862255,
    "region1": "충청북도",
    "region2": "옥천군",
    "region3": "옥천읍"
  },
  {
    "name": "경기 의정부송산3동작은도서관",
    "address": "경기도 의정부시 민락로 360 2층 송산3동 작은도서관 ",
    "lat": 37.7531898155774,
    "lng": 127.113773313956,
    "region1": "경기도",
    "region2": "의정부시",
    "region3": "낙양동"
  },
  {
    "name": "경기 의왕시진달래아파트작은도서관",
    "address": "경기도 의왕시 호성로 64 오전동 진달래아파트 관리소 지하 1층 ",
    "lat": 37.3674312913068,
    "lng": 126.965785533579,
    "region1": "경기도",
    "region2": "의왕시",
    "region3": "오전동"
  },
  {
    "name": "광주 하남도서관",
    "address": "광주광역시 광산구 손재로 120 ",
    "lat": 35.1761776507218,
    "lng": 126.797261209175,
    "region1": "광주광역시",
    "region2": "광산구",
    "region3": "하남동"
  },
  {
    "name": "경기 송정작은도서관",
    "address": "경기도 광주시 중앙로 174, 3층 ",
    "lat": 37.4150233897551,
    "lng": 127.257201440551,
    "region1": "경기도",
    "region2": "광주시",
    "region3": "송정동"
  },
  {
    "name": "충북 제천남부도서관",
    "address": "충청북도 제천시 내제로 318 제천시립도서관 ",
    "lat": 37.1450633819097,
    "lng": 128.220135704884,
    "region1": "충청북도",
    "region2": "제천시",
    "region3": "장락동"
  },
  {
    "name": "서울 해담는도서관",
    "address": "서울특별시 서대문구 응암로 131 북가좌 종합청사,  2-3층 ",
    "lat": 37.584321726244,
    "lng": 126.914074828813,
    "region1": "서울특별시",
    "region2": "서대문구",
    "region3": "북가좌동"
  },
  {
    "name": "충북 증평어울림 공립 작은도서관",
    "address": "충청북도 증평군 증평읍 창동길 7 어울림센터 어울림 작은도서관 ",
    "lat": 36.7841975738727,
    "lng": 127.57803149757,
    "region1": "충청북도",
    "region2": "증평군",
    "region3": "증평읍"
  },
  {
    "name": "부산 덕천도서관",
    "address": "부산광역시 북구 의성로47번길 45-2 덕천도서관 ",
    "lat": 35.2168941976932,
    "lng": 129.011984739903,
    "region1": "부산광역시",
    "region2": "북구",
    "region3": "덕천동"
  },
  {
    "name": "인천 송도국제도서관",
    "address": "인천광역시 연수구 아카데미로 166 ",
    "lat": 37.3805248584833,
    "lng": 126.631972887715,
    "region1": "인천광역시",
    "region2": "연수구",
    "region3": "송도동"
  },
  {
    "name": "강원 인제상남도서관",
    "address": "강원특별자치도 인제군 상남면 상남로 59 상남도서관 ",
    "lat": 37.8740485576832,
    "lng": 128.257386408732,
    "region1": "강원특별자치도",
    "region2": "인제군",
    "region3": "상남면"
  },
  {
    "name": "강원 인제신남도서관",
    "address": "강원 인제군 남면 신남리 334-9 남면복합문화센터 3층(신남도서관) ",
    "lat": 37.9684736837419,
    "lng": 128.082030150794,
    "region1": "강원특별자치도",
    "region2": "인제군",
    "region3": "남면"
  },
  {
    "name": "경남 양산시립어린이영어도서관",
    "address": "경상남도 양산시 물금읍 백호로 125 3층 양산시립 어린이영어도서관 ",
    "lat": 35.3147989700214,
    "lng": 129.006965206652,
    "region1": "경상남도",
    "region2": "양산시",
    "region3": "물금읍"
  },
  {
    "name": "대구 달성어린이숲도서관",
    "address": "대구광역시 달성군 현풍읍 테크노중앙대로 231 달성어린이숲도서관 ",
    "lat": 35.6911036739184,
    "lng": 128.457121482268,
    "region1": "대구광역시",
    "region2": "달성군",
    "region3": "현풍읍"
  },
  {
    "name": "전북 전주아중호수도서관",
    "address": "전북특별자치도 전주시 완산구 백제대로 306 전주시립도서관 ",
    "lat": 35.8202434927303,
    "lng": 127.123609734734,
    "region1": "전북특별자치도",
    "region2": "전주시 완산구",
    "region3": "중화산동2가"
  },
  {
    "name": "서울 강동중앙도서관",
    "address": "서울특별시 강동구 양재대로84길 63 강동중앙도서관 ",
    "lat": 37.5243505597151,
    "lng": 127.136965792517,
    "region1": "서울특별시",
    "region2": "강동구",
    "region3": "둔촌동"
  },
  {
    "name": "부산 연제만화도서관",
    "address": "부산광역시 연제구 연수로208번길 16 ",
    "lat": 35.1729556272843,
    "lng": 129.092907280953,
    "region1": "부산광역시",
    "region2": "연제구",
    "region3": "연산동"
  },
  {
    "name": "전남 여수시이편한작은도서관",
    "address": "전라남도 여수시 학동북4길 7 커뮤니티센터 1층 작은도서관 ",
    "lat": 34.7669528814609,
    "lng": 127.657456464384,
    "region1": "전라남도",
    "region2": "여수시",
    "region3": "학동"
  },
  {
    "name": "전남 여수시채움늘작은도서관",
    "address": "전라남도 여수시 웅천로 262 관리동 2층 ",
    "lat": 34.7458594397504,
    "lng": 127.688194015729,
    "region1": "전라남도",
    "region2": "여수시",
    "region3": "웅천동"
  },
  {
    "name": "전남 여수시지웰2차작은도서관",
    "address": "전라남도 여수시 웅천중앙로 33, 주민복지관 1층 ",
    "lat": 34.7495310579435,
    "lng": 127.669525853976,
    "region1": "전라남도",
    "region2": "여수시",
    "region3": "웅천동"
  },
  {
    "name": "전남 여수시웅천글꽃작은도서관",
    "address": "전라남도 여수시 웅천중앙로 47 커뮤니티센터 1층 웅천글꽃작은도서관 ",
    "lat": 34.7496092039641,
    "lng": 127.671785580721,
    "region1": "전라남도",
    "region2": "여수시",
    "region3": "웅천동"
  },
  {
    "name": "경기 성남시수내도서관",
    "address": "경기도 성남시 분당구 수내동 155-4 ",
    "lat": 37.3677617287333,
    "lng": 127.129974242105,
    "region1": "경기도",
    "region2": "성남시 분당구",
    "region3": "수내동"
  },
  {
    "name": "인천 영종국제도서관",
    "address": "인천광역시 중구 찬들로 151 문화복지동, 2층 ",
    "lat": 37.4805286164528,
    "lng": 126.532014380453,
    "region1": "인천광역시",
    "region2": "중구",
    "region3": "운남동"
  },
  {
    "name": "전남 광양꿈빛도서관",
    "address": "전라남도 광양시 무등길 97 ",
    "lat": 34.9534604127162,
    "lng": 127.69204617245,
    "region1": "전라남도",
    "region2": "광양시",
    "region3": "마동"
  },
  {
    "name": "강원 원주생각자람어린이도서관",
    "address": "강원도 원주시 시청로 160-9 ",
    "lat": 37.3302195979783,
    "lng": 127.934070001079,
    "region1": "강원특별자치도",
    "region2": "원주시",
    "region3": "무실동"
  },
  {
    "name": "대전 동대전도서관",
    "address": "대전광역시 동구 우암로277번길 70 동대전도서관 ",
    "lat": 36.3488192103673,
    "lng": 127.445039164003,
    "region1": "대전광역시",
    "region2": "동구",
    "region3": "가양동"
  },
  {
    "name": "울산 책 놀이터 북적북적",
    "address": "울산광역시 동구 서부로 18 ",
    "lat": 35.5275742387446,
    "lng": 129.430200669768,
    "region1": "울산광역시",
    "region2": "동구",
    "region3": "서부동"
  },
  {
    "name": "부산 덕포1동 어린이복합문화공간 그리며 들락날락",
    "address": "부산광역시 사상구 강선로 31 덕포1동 행정복지센터 내 1,4,5 층 ",
    "lat": 35.1693775968838,
    "lng": 128.98575704767,
    "region1": "부산광역시",
    "region2": "사상구",
    "region3": "덕포동"
  },
  {
    "name": "대구 북구 서변숲도서관",
    "address": "대구광역시 북구 서변로3길 54 서변숲도서관 ",
    "lat": 35.9212740485389,
    "lng": 128.594719189215,
    "region1": "대구광역시",
    "region2": "북구",
    "region3": "서변동"
  },
  {
    "name": "부산 바다Dream작은도서관들락날락",
    "address": "부산광역시 남구 백운포로 110 남구국민체육센터2관, 2층 ",
    "lat": 35.1038823386757,
    "lng": 129.108200142669,
    "region1": "부산광역시",
    "region2": "남구",
    "region3": "용호동"
  },
  {
    "name": "전북 에코도서관",
    "address": "전북특별자치도 전주시 덕진구 세병로 31 ",
    "lat": 35.8753596979323,
    "lng": 127.130360565179,
    "region1": "전북특별자치도",
    "region2": "전주시 덕진구",
    "region3": "송천동2가"
  },
  {
    "name": "서울 신길도서관",
    "address": "서울특별시 영등포구 신길동 4946 신길문화체육도서관 ",
    "lat": 37.5041332795082,
    "lng": 126.909755058675,
    "region1": "서울특별시",
    "region2": "영등포구",
    "region3": "신길동"
  },
  {
    "name": "서울 강동숲속도서관",
    "address": "서울특별시 강동구 구천면로 587 강동숲속도서관 ",
    "lat": 37.5513023360624,
    "lng": 127.163784636013,
    "region1": "서울특별시",
    "region2": "강동구",
    "region3": "상일동"
  },
  {
    "name": "대전 용산도서관",
    "address": "대전광역시 유성구 배울1로 118 ",
    "lat": 36.4168841838763,
    "lng": 127.392341956408,
    "region1": "대전광역시",
    "region2": "유성구",
    "region3": "용산동"
  },
  {
    "name": "전북 무학정원작은도서관",
    "address": "전북특별자치도 익산시 용안면 용안교동1길 22 어울림센타 ",
    "lat": 36.1211372749666,
    "lng": 126.953725383627,
    "region1": "전북특별자치도",
    "region2": "익산시",
    "region3": "용안면"
  },
  {
    "name": "서울 중화문학도서관",
    "address": "서울특별시 중랑구 봉화산로 27 (중화동) ",
    "lat": 37.6020210137217,
    "lng": 127.077421772621,
    "region1": "서울특별시",
    "region2": "중랑구",
    "region3": "중화동"
  },
  {
    "name": "경기 김포시모담도서관",
    "address": "경기도 김포시 모담공원로 118, 모담도서관 ",
    "lat": 37.6498163027012,
    "lng": 126.691992561194,
    "region1": "경기도",
    "region2": "김포시",
    "region3": "운양동"
  },
  {
    "name": "충남 당진시립면천읍성작은도서관",
    "address": "충청남도 당진시 면천면 면천로 623-14 활력바라지 복지회관 2층 ",
    "lat": 36.8162787497718,
    "lng": 126.664856742216,
    "region1": "충청남도",
    "region2": "당진시",
    "region3": "면천면"
  },
  {
    "name": "충남 당진시립소들빛작은도서관",
    "address": "충청남도 당진시 우강면 솔뫼로 51 약시우강사랑채 3층 ",
    "lat": 36.8153659384868,
    "lng": 126.776882414735,
    "region1": "충청남도",
    "region2": "당진시",
    "region3": "우강면"
  },
  {
    "name": "충남 정미4.4만세작은도서관",
    "address": "충청남도 당진시 정미면 4.4만세로 713-12 정미희망나눔센터 2층 ",
    "lat": 36.8862151815722,
    "lng": 126.567847637409,
    "region1": "충청남도",
    "region2": "당진시",
    "region3": "정미면"
  },
  {
    "name": "경북 포항시립포은흥해도서관",
    "address": "경상북도 포항시 북구 흥해읍 흥해로81번길 46 ",
    "lat": 36.1118378353341,
    "lng": 129.342815009787,
    "region1": "경상북도",
    "region2": "포항시 북구",
    "region3": "흥해읍"
  },
  {
    "name": "충북 충주호암어린이도서관",
    "address": "충청북도 충주시 호암토성3길 5 2층 ",
    "lat": 36.9531565736415,
    "lng": 127.933335519093,
    "region1": "충청북도",
    "region2": "충주시",
    "region3": "호암동"
  },
  {
    "name": "충북 괴산군립도서관",
    "address": "충청북도 괴산군 괴산읍 읍내로 184 괴산군립도서관 ",
    "lat": 36.8003458432773,
    "lng": 127.78910185115,
    "region1": "충청북도",
    "region2": "괴산군",
    "region3": "괴산읍"
  },
  {
    "name": "대구 혁신도시복합혁신센터도서관",
    "address": "대구광역시 동구 이노밸리로 180 ",
    "lat": 35.8782134096148,
    "lng": 128.716883519756,
    "region1": "대구광역시",
    "region2": "동구",
    "region3": "각산동"
  },
  {
    "name": "부산 혁신어울림작은도서관",
    "address": "부산광역시 동래구 금강로 129 혁신어울림센터(4층) ",
    "lat": 35.2202712838124,
    "lng": 129.08002312011,
    "region1": "부산광역시",
    "region2": "동래구",
    "region3": "온천동"
  },
  {
    "name": "경기 하남시덕풍스포츠작은도서관",
    "address": "경기도 하남시 덕풍동 426-10 덕풍스포츠문화센터 3층 덕풍스포츠작은도서관 ",
    "lat": 37.5379074618342,
    "lng": 127.202848082544,
    "region1": "경기도",
    "region2": "하남시",
    "region3": "덕풍동"
  },
  {
    "name": "인천 단봉늘봄도서관",
    "address": "인천광역시 서구 오동로 25 단봉늘봄도서관 ",
    "lat": 37.5964968296682,
    "lng": 126.639805617486,
    "region1": "인천광역시",
    "region2": "서구",
    "region3": "왕길동"
  },
  {
    "name": "대구 다문화어린이도서관",
    "address": "대구광역시 남구 봉덕남로 99 2층 모두도서관 ",
    "lat": 35.8417548912375,
    "lng": 128.594570327362,
    "region1": "대구광역시",
    "region2": "남구",
    "region3": "봉덕동"
  },
  {
    "name": "부산 온빛어린이작은도서관",
    "address": "부산광역시 동래구 아시아드대로231번길 (온천동) ",
    "lat": 35.2056965102682,
    "lng": 129.06507250517,
    "region1": "부산광역시",
    "region2": "동래구",
    "region3": "온천동"
  },
  {
    "name": "충북 이원 작은도서관",
    "address": "충북 옥천군 이원면 강청리 50-2 ",
    "lat": 36.2457933444567,
    "lng": 127.620327718332,
    "region1": "충청북도",
    "region2": "옥천군",
    "region3": "이원면"
  },
  {
    "name": "충북 군북작은도서관",
    "address": "충청북도 옥천군 군북면 이백길 8, 군북작은도서관 ",
    "lat": 36.3298889676065,
    "lng": 127.53448041522,
    "region1": "충청북도",
    "region2": "옥천군",
    "region3": "군북면"
  },
  {
    "name": "충북 군서작은도서관",
    "address": "충청북도 옥천군 군서면 성왕로 540 ",
    "lat": 36.2798659972506,
    "lng": 127.527406477502,
    "region1": "충청북도",
    "region2": "옥천군",
    "region3": "군서면"
  },
  {
    "name": "충북 옥천군민도서관",
    "address": "충청북도 옥천군 옥천읍 관성로4길 10 ",
    "lat": 36.3004241655707,
    "lng": 127.574921251193,
    "region1": "충청북도",
    "region2": "옥천군",
    "region3": "옥천읍"
  },
  {
    "name": "충남 아산시배방월천도서관",
    "address": "충남 아산시 배방읍 월천5길 13 ",
    "lat": 36.7706036362634,
    "lng": 127.078297805668,
    "region1": "충청남도",
    "region2": "아산시",
    "region3": "배방읍"
  },
  {
    "name": "경기 오르빛도서관",
    "address": "경기도 동두천시 생연동 557-3번지 4~6층 ",
    "lat": 37.9096563850109,
    "lng": 127.056510165413,
    "region1": "경기도",
    "region2": "동두천시",
    "region3": "생연동"
  },
  {
    "name": "부산 진구당감도서관",
    "address": "부산광역시 부산진구 당감동 93-17번지 ",
    "lat": 35.1576578180108,
    "lng": 129.046904263461,
    "region1": "부산광역시",
    "region2": "부산진구",
    "region3": "당감동"
  },
  {
    "name": "충남 천안직산도서관",
    "address": "충청남도 천안시 서북구 직산읍 삼은4길 12 직산도서관 ",
    "lat": 36.8788786248732,
    "lng": 127.150187394313,
    "region1": "충청남도",
    "region2": "천안시 서북구",
    "region3": "직산읍"
  },
  {
    "name": "부산 금사회동동 작은도서관",
    "address": "부산광역시 금정구 금사동 388-4번지 일원 (신축 금사도시재생어울림센터 1층) ",
    "lat": 35.220432604354,
    "lng": 129.111264321244,
    "region1": "부산광역시",
    "region2": "금정구",
    "region3": "금사동"
  },
  {
    "name": "광주 송정다누리작은도서관",
    "address": "광주광역시 광산구 광산로 70, 2층 ",
    "lat": 35.1407141623166,
    "lng": 126.798769209652,
    "region1": "광주광역시",
    "region2": "광산구",
    "region3": "송정동"
  },
  {
    "name": "부산 한국신발관 작은도서관",
    "address": "부산광역시 부산진구 백양대로 227 3층 ",
    "lat": 35.157302652705,
    "lng": 129.025799635823,
    "region1": "부산광역시",
    "region2": "부산진구",
    "region3": "개금동"
  },
  {
    "name": "경기 향남복합문화센터도서관",
    "address": "경기도 화성시 향남읍 상신하길로273번길 17 향남복합문화센터 ",
    "lat": 37.1128328915749,
    "lng": 126.907127120352,
    "region1": "경기도",
    "region2": "화성시",
    "region3": "향남읍"
  },
  {
    "name": "서울 동작구만나작은도서관",
    "address": "서울특별시 동작구 사당로2다길 85 1층 ",
    "lat": 37.4896554316338,
    "lng": 126.963130745075,
    "region1": "서울특별시",
    "region2": "동작구",
    "region3": "사당동"
  },
  {
    "name": "전북 무주무풍십승지작은도서관",
    "address": "전북특별자치도 무주군 무풍면 현내로 218 무풍십승지어울림센터 4층 ",
    "lat": 35.9690287040302,
    "lng": 127.849323518602,
    "region1": "전북특별자치도",
    "region2": "무주군",
    "region3": "무풍면"
  },
  {
    "name": "강원 홍천어린이도서관",
    "address": "강원특별자치도 홍천군 홍천읍 열산골길 10 홍천어린이도서관 ",
    "lat": 37.6787853679922,
    "lng": 127.872535303619,
    "region1": "강원특별자치도",
    "region2": "홍천군",
    "region3": "홍천읍"
  },
  {
    "name": "충남 아산시음봉어울샘도서관",
    "address": "충청남도 아산시 음봉면 음봉로 515-36 ",
    "lat": 36.843645853413,
    "lng": 127.068654139106,
    "region1": "충청남도",
    "region2": "아산시",
    "region3": "음봉면"
  },
  {
    "name": "세종 전의나무도서관",
    "address": "세종특별자치시 전의면 운주산로 1276 전의면복합커뮤니티센터 3층 ",
    "lat": 36.681094239146,
    "lng": 127.195188014951,
    "region1": "세종특별자치시",
    "region2": "",
    "region3": "전의면"
  },
  {
    "name": "세종 어진그림책도서관",
    "address": "세종특별자치시 다솜1로 31 어진동복합커뮤니티센터 2층 ",
    "lat": 36.5019086750546,
    "lng": 127.256528732042,
    "region1": "세종특별자치시",
    "region2": "",
    "region3": "어진동"
  },
  {
    "name": "대구 서구어린이영어도서관",
    "address": "대구광역시 서구 문화로 160 서구어린이영어도서관 ",
    "lat": 35.8741855560245,
    "lng": 128.550586407084,
    "region1": "대구광역시",
    "region2": "서구",
    "region3": "평리동"
  },
  {
    "name": "울산 어린이청소년도서관",
    "address": "울산광역시 남구 봉월로38번길 32(신정동) ",
    "lat": 35.5362251116968,
    "lng": 129.30925221896,
    "region1": "울산광역시",
    "region2": "남구",
    "region3": "신정동"
  },
  {
    "name": "서울 원지공원도서관",
    "address": "서울특별시 영등포구 도림로47길 23 원지공원도서관 ",
    "lat": 37.4973303588931,
    "lng": 126.899420893308,
    "region1": "서울특별시",
    "region2": "영등포구",
    "region3": "대림동"
  },
  {
    "name": "부산 송정동어린이작은도서관",
    "address": "부산광역시 해운대구 송정중앙로21번길 20 송정동주민센터 2층 ",
    "lat": 35.1836602838849,
    "lng": 129.203714733816,
    "region1": "부산광역시",
    "region2": "해운대구",
    "region3": "송정동"
  },
  {
    "name": "부산 우암도서관",
    "address": "부산광역시 남구 당산로 22 ",
    "lat": 35.1254833822306,
    "lng": 129.077877838206,
    "region1": "부산광역시",
    "region2": "남구",
    "region3": "우암동"
  },
  {
    "name": "경기 안양시립큰샘어린이도서관",
    "address": "경기도 안양시 만안구 덕천로 102 안양시립큰샘어린이도서관 ",
    "lat": 37.3901354011314,
    "lng": 126.934404376768,
    "region1": "경기도",
    "region2": "안양시 만안구",
    "region3": "안양동"
  },
  {
    "name": "서울 구로미래도서관",
    "address": "서울특별시 구로구 새말로 111 구로미래도서관 ",
    "lat": 37.5070141562705,
    "lng": 126.891449157894,
    "region1": "서울특별시",
    "region2": "구로구",
    "region3": "구로동"
  },
  {
    "name": "전북 함라등대작은도서관",
    "address": "전북특별자치도 익산시 함라면 함열리 441번지 ",
    "lat": 36.0605825972027,
    "lng": 126.911067896872,
    "region1": "전북특별자치도",
    "region2": "익산시",
    "region3": "함라면"
  },
  {
    "name": "경남 양산시꿈드림작은도서관",
    "address": "경상남도 양산시 동면 외송로 30 커뮤니티센터 B6 ",
    "lat": 35.3136291709416,
    "lng": 129.074812181169,
    "region1": "경상남도",
    "region2": "양산시",
    "region3": "동면"
  },
  {
    "name": "경남 양산두산위브 2차1단지 작은도서관",
    "address": "경상남도 양산시 신덕계8길 37 관리동 1층 작은도서관 ",
    "lat": 35.3761752974299,
    "lng": 129.162810712327,
    "region1": "경상남도",
    "region2": "양산시",
    "region3": "덕계동"
  },
  {
    "name": "경기 김포만화도서관",
    "address": "경기도 김포시  고촌읍 수기로 63 ",
    "lat": 37.5976074909589,
    "lng": 126.766113293205,
    "region1": "경기도",
    "region2": "김포시",
    "region3": "고촌읍"
  },
  {
    "name": "울산 종갓집도서관",
    "address": "울산광역시 중구 종가3길 29 울산종갓집도서관 ",
    "lat": 35.5603349065903,
    "lng": 129.298059153362,
    "region1": "울산광역시",
    "region2": "중구",
    "region3": "유곡동"
  },
  {
    "name": "서울 동작구신대방햇살도서관",
    "address": "서울특별시 동작구 여의대방로16길 53 신대방햇살도서관 ",
    "lat": 37.4947197628832,
    "lng": 126.916767722548,
    "region1": "서울특별시",
    "region2": "동작구",
    "region3": "신대방동"
  },
  {
    "name": "부산 영도자원순환센터 작은도서관",
    "address": "부산광역시 영도구 해양로 202 영도자원순환센터 2층 ",
    "lat": 35.0879428000387,
    "lng": 129.071967114091,
    "region1": "부산광역시",
    "region2": "영도구",
    "region3": "동삼동"
  },
  {
    "name": "강원 별빛나루도서관",
    "address": "강원특별자치도 홍천군 홍천읍 갈마로9길 13 별빛나루도서관 ",
    "lat": 37.6960460328702,
    "lng": 127.902698288357,
    "region1": "강원특별자치도",
    "region2": "홍천군",
    "region3": "홍천읍"
  },
  {
    "name": "경남 창원신추산작은도서관",
    "address": "경상남도 창원시 마산합포구 문신길 169 신추산상가 4층 ",
    "lat": 35.2070829401268,
    "lng": 128.569643686822,
    "region1": "경상남도",
    "region2": "창원시 마산합포구",
    "region3": "추산동"
  },
  {
    "name": "경남 창원고운작은도서관",
    "address": "경상남도 창원시 마산합포구 월영마을로 3 월영동행정복지센터 2층 ",
    "lat": 35.1742150354129,
    "lng": 128.558102127694,
    "region1": "경상남도",
    "region2": "창원시 마산합포구",
    "region3": "월영동"
  },
  {
    "name": "경남 창원여좌작은도서관",
    "address": "경상남도 창원시 진해구 여좌천로 64-1 여좌커뮤니티센터 2층 ",
    "lat": 35.1586728254383,
    "lng": 128.660215539916,
    "region1": "경상남도",
    "region2": "창원시 진해구",
    "region3": "여좌동"
  },
  {
    "name": "충남 행복담은도서관",
    "address": "충청남도 부여군 부여읍 의열로 43 2층 부여생활문화센터 ",
    "lat": 36.2793392849302,
    "lng": 126.916730824691,
    "region1": "충청남도",
    "region2": "부여군",
    "region3": "부여읍"
  },
  {
    "name": "인천 꿈드림어린이영어도서관",
    "address": "인천광역시 동구 새천년로 93 송림골 꿈드림센터 2층 ",
    "lat": 37.476462007669,
    "lng": 126.648208305695,
    "region1": "인천광역시",
    "region2": "동구",
    "region3": "송림동"
  },
  {
    "name": "서울 광진어린이영어도서관",
    "address": "서울특별시 광진구 천호대로136길 55 구의2동 복합청사 1층 ",
    "lat": 37.547169602748,
    "lng": 127.08993400467,
    "region1": "서울특별시",
    "region2": "광진구",
    "region3": "구의동"
  },
  {
    "name": "대전 석봉도서관",
    "address": "대전광역시 대덕구 대덕대로 1579 2층 ",
    "lat": 36.4507473081822,
    "lng": 127.423237650257,
    "region1": "대전광역시",
    "region2": "대덕구",
    "region3": "석봉동"
  },
  {
    "name": "경기 초평엘리프작은도서관",
    "address": "경기도 의왕시 광진말1로 11 309동 1층 ",
    "lat": 37.3192844178006,
    "lng": 126.94351707232,
    "region1": "경기도",
    "region2": "의왕시",
    "region3": "초평동"
  },
  {
    "name": "경기 시흥시은계도서관",
    "address": "경기도 시흥시 수인로3247번길 33 은계도서관 ",
    "lat": 37.4357901489495,
    "lng": 126.797934274792,
    "region1": "경기도",
    "region2": "시흥시",
    "region3": "은행동"
  },
  {
    "name": "경기 성남시고등도서관",
    "address": "경기도 성남시 수정구 고등동 584, 고등동 행정복지센터 3층 ",
    "lat": 37.4282864118268,
    "lng": 127.101294935407,
    "region1": "경기도",
    "region2": "성남시 수정구",
    "region3": "고등동"
  },
  {
    "name": "서울 제기동감초마을현진건기념도서관",
    "address": "서울특별시 동대문구 약령시로9길 45 4층~5층 ",
    "lat": 37.5850973113942,
    "lng": 127.035120181597,
    "region1": "서울특별시",
    "region2": "동대문구",
    "region3": "제기동"
  },
  {
    "name": "부산 아동보호종합센터도서실",
    "address": "부산 서구 까치고개로 183 ",
    "lat": 35.1001930614032,
    "lng": 129.015868566609,
    "region1": "부산광역시",
    "region2": "서구",
    "region3": "아미동2가"
  },
  {
    "name": "부산 초량이바구작은도서관",
    "address": "부산광역시 동구 초량동 103-5, 2층 초량이바구작은도서관 ",
    "lat": 35.1217298924942,
    "lng": 129.040537170906,
    "region1": "부산광역시",
    "region2": "동구",
    "region3": "초량동"
  },
  {
    "name": "강원 원주시그림책도서관",
    "address": "강원특별자치도 원주시 향교길 77 원주시 그림책도서관 ",
    "lat": 37.3410626372216,
    "lng": 127.949286938317,
    "region1": "강원특별자치도",
    "region2": "원주시",
    "region3": "명륜동"
  },
  {
    "name": "충북 창의파크 작은도서관",
    "address": "충청북도 증평군 증평읍 윗장뜰길 102 창의파크작은도서관 ",
    "lat": 36.7872729234921,
    "lng": 127.586302493085,
    "region1": "충청북도",
    "region2": "증평군",
    "region3": "증평읍"
  },
  {
    "name": "제주 꿈바당어린이도서관",
    "address": "제주특별자치도 제주시 연오로 140  ",
    "lat": 33.4805911262,
    "lng": 126.499739636183,
    "region1": "제주특별자치도",
    "region2": "제주시",
    "region3": "연동"
  },
  {
    "name": "경남 김해어린이영어도서관",
    "address": "경남김해시 부곡로 57  3층 ",
    "lat": 35.2094011203997,
    "lng": 128.79824377314,
    "region1": "경상남도",
    "region2": "김해시",
    "region3": "부곡동"
  },
  {
    "name": "경기 어울림 작은도서관",
    "address": "경기도 하남시 신장동로 15 하남시 종합복지타운 내 가족어울림센터 3층 어울림 작은도서관 ",
    "lat": 37.5437028490477,
    "lng": 127.20895392126,
    "region1": "경기도",
    "region2": "하남시",
    "region3": "신장동"
  },
  {
    "name": "강원 정선군립도서관",
    "address": "강원특별자치도 정선군 정선읍 녹송2길 26 정선군립도서관 ",
    "lat": 37.3817422362852,
    "lng": 128.673097726994,
    "region1": "강원특별자치도",
    "region2": "정선군",
    "region3": "정선읍"
  },
  {
    "name": "경북 영주시립도서관",
    "address": "경상북도 영주시 가흥로 263 ",
    "lat": 36.8208561274354,
    "lng": 128.612911036945,
    "region1": "경상북도",
    "region2": "영주시",
    "region3": "가흥동"
  },
  {
    "name": "경북 영주상망작은도서관",
    "address": "경북 영주시 광복로 87 ",
    "lat": 36.8281055340163,
    "lng": 128.628330243706,
    "region1": "경상북도",
    "region2": "영주시",
    "region3": "하망동"
  },
  {
    "name": "경북 영주휴천작은도서관",
    "address": "경북 영주시 구성로273번길 30 ",
    "lat": 36.8177854753349,
    "lng": 128.625863522892,
    "region1": "경상북도",
    "region2": "영주시",
    "region3": "휴천동"
  },
  {
    "name": "경북 평은면작은도서관",
    "address": "경북 영주시 평은면 신평로 29 ",
    "lat": 36.7584234559592,
    "lng": 128.688507204805,
    "region1": "경상북도",
    "region2": "영주시",
    "region3": "평은면"
  },
  {
    "name": "경북 어울림가족센터 작은도서관",
    "address": "경상북도 영주시 중앙로 20 ",
    "lat": 36.8191619162703,
    "lng": 128.619032452604,
    "region1": "경상북도",
    "region2": "영주시",
    "region3": "가흥동"
  },
  {
    "name": "경북 영주하망도서관",
    "address": "경상북도 영주시 중앙로126번길 11 ",
    "lat": 36.8265215519315,
    "lng": 128.626521468976,
    "region1": "경상북도",
    "region2": "영주시",
    "region3": "하망동"
  },
  {
    "name": "전남 곡성어린이도서관",
    "address": "전라남도 곡성군 곡성읍 곡성로 903 곡성어린이도서관 ",
    "lat": 35.2821107549399,
    "lng": 127.301154761865,
    "region1": "전라남도",
    "region2": "곡성군",
    "region3": "곡성읍"
  },
  {
    "name": "전북 망성아담작은도서관",
    "address": "전북특별자치도 익산시 망성면 안성로 726 2층, 망성아담작은도서관 ",
    "lat": 36.1326143730299,
    "lng": 127.020641690754,
    "region1": "전북특별자치도",
    "region2": "익산시",
    "region3": "망성면"
  },
  {
    "name": "충북 레인보우영동도서관",
    "address": "영동군 영동읍 계산로 2길 25 ",
    "lat": 36.1727527194374,
    "lng": 127.77779094926,
    "region1": "충청북도",
    "region2": "영동군",
    "region3": "영동읍"
  },
  {
    "name": "전남 순천시립어울림도서관",
    "address": "전라남도 순천시 동천저류지길37 ",
    "lat": 34.9377542291637,
    "lng": 127.499054994364,
    "region1": "전라남도",
    "region2": "순천시",
    "region3": "풍덕동"
  },
  {
    "name": "부산 진구기적의도서관",
    "address": "부산광역시 부산진구 범양로125번길19 부산진구기적의도서관 ",
    "lat": 35.1740314030824,
    "lng": 129.06470157938,
    "region1": "부산광역시",
    "region2": "부산진구",
    "region3": "양정동"
  },
  {
    "name": "전북 고슴도치작은도서관",
    "address": "전북특별자치도 부안군 위도면 진리안길 5 위도면사무소 2층 ",
    "lat": 35.602603200296,
    "lng": 126.293004897611,
    "region1": "전북특별자치도",
    "region2": "부안군",
    "region3": "위도면"
  },
  {
    "name": "충남 홍산공공도서관",
    "address": "충청남도 부여군 홍산면 홍산로 77-1 ",
    "lat": 36.2167478479072,
    "lng": 126.759532957872,
    "region1": "충청남도",
    "region2": "부여군",
    "region3": "홍산면"
  },
  {
    "name": "대전 전민도서관",
    "address": "대전광역시 유성구 문지로299번길 18 ",
    "lat": 36.3931040728676,
    "lng": 127.406290674599,
    "region1": "대전광역시",
    "region2": "유성구",
    "region3": "문지동"
  },
  {
    "name": "부산 하단도서관",
    "address": "부산광역시 사하구 하신번영로 245 ",
    "lat": 35.103157614029,
    "lng": 128.957645787527,
    "region1": "부산광역시",
    "region2": "사하구",
    "region3": "하단동"
  },
  {
    "name": "부산 주례열린도서관",
    "address": "부산광역시 사상구 주례로 110 (주례동) 주례열린도서관 ",
    "lat": 35.1465812446278,
    "lng": 129.004556726549,
    "region1": "부산광역시",
    "region2": "사상구",
    "region3": "주례동"
  },
  {
    "name": "대구 New평리도서관",
    "address": "대구광역시 서구 평리로73길 37 New평리도서관 ",
    "lat": 35.8689138509224,
    "lng": 128.562288835433,
    "region1": "대구광역시",
    "region2": "서구",
    "region3": "평리동"
  },
  {
    "name": "경기 푸른작은도서관",
    "address": "경기도 의왕시 장안중앙로 42 푸른작은도서관 ",
    "lat": 37.319806908245,
    "lng": 126.962535832055,
    "region1": "경기도",
    "region2": "의왕시",
    "region3": "삼동"
  },
  {
    "name": "광주 책정원도서관",
    "address": "광주광역시 동구 남계길 49 ",
    "lat": 35.0931673515537,
    "lng": 126.940520756251,
    "region1": "광주광역시",
    "region2": "동구",
    "region3": "내남동"
  },
  {
    "name": "경남 사천시립도서관",
    "address": "경상남도 사천시 정동면 반룡로27 ",
    "lat": 35.0709865846903,
    "lng": 128.081529341348,
    "region1": "경상남도",
    "region2": "사천시",
    "region3": "정동면"
  },
  {
    "name": "경기 용인영덕도서관",
    "address": "경기도 용인시 기흥구 덕영대로2077번길 7  영덕도서관 ",
    "lat": 37.268361439502,
    "lng": 127.098081031835,
    "region1": "경기도",
    "region2": "용인시 기흥구",
    "region3": "영덕동"
  },
  {
    "name": "세종 특별자치시 행정자료실",
    "address": "세종특별자치시 한누리대로 2130 ",
    "lat": 36.4800579897497,
    "lng": 127.289039408864,
    "region1": "세종특별자치시",
    "region2": "",
    "region3": "보람동"
  },
  {
    "name": "대전 한국발전교육원 도서실",
    "address": "대전광역시  서구 구봉산북로 94번길77 한국발전인재개발원 ",
    "lat": 36.2897045821705,
    "lng": 127.330685928375,
    "region1": "대전광역시",
    "region2": "서구",
    "region3": "관저동"
  },
  {
    "name": "부산 수남어린이작은도서관",
    "address": "부산광역시 동구 충장대로289번길 17 2층 ",
    "lat": 35.1269851125114,
    "lng": 129.051830155595,
    "region1": "부산광역시",
    "region2": "동구",
    "region3": "좌천동"
  },
  {
    "name": "부산 구서2동 어린이작은도서관",
    "address": "부산광역시 금정구 금강로 584, 구서2동 행정복지센터 4층 ",
    "lat": 35.2595502384829,
    "lng": 129.088035425399,
    "region1": "부산광역시",
    "region2": "금정구",
    "region3": "구서동"
  },
  {
    "name": "제주 서귀포시청 행정자료실",
    "address": "제주특별자치도 서귀포시 중앙로 105 ",
    "lat": 33.2539547145487,
    "lng": 126.559588270998,
    "region1": "제주특별자치도",
    "region2": "서귀포시",
    "region3": "서홍동"
  },
  {
    "name": "대전 관평도서관",
    "address": "대전광역시 유성구 테크노4로 131 ",
    "lat": 36.4231832802637,
    "lng": 127.388468208674,
    "region1": "대전광역시",
    "region2": "유성구",
    "region3": "관평동"
  },
  {
    "name": "경남 양산시립삼산도서관",
    "address": "경상남도 양산시 동면 금산리 1352-28  양산시립 삼산도서관 ",
    "lat": 35.3094321335677,
    "lng": 129.019109916357,
    "region1": "경상남도",
    "region2": "양산시",
    "region3": "동면"
  },
  {
    "name": "경기 광주광남도서관",
    "address": "경기도 광주시 고불로 46번길 47 광남동행정복합문화시설 ",
    "lat": 37.3942649744347,
    "lng": 127.229086398813,
    "region1": "경기도",
    "region2": "광주시",
    "region3": "중대동"
  },
  {
    "name": "경북 죽도청암 작은도서관",
    "address": "경상북도 포항시 북구 죽도동 20-76 ",
    "lat": 36.0330868499066,
    "lng": 129.369503882489,
    "region1": "경상북도",
    "region2": "포항시 북구",
    "region3": "죽도동"
  },
  {
    "name": "경북 흥해 어리골작은도서관",
    "address": "경상북도 포항시 북구 흥해읍 이인리 424 ",
    "lat": 36.0704244465209,
    "lng": 129.333806275465,
    "region1": "경상북도",
    "region2": "포항시 북구",
    "region3": "흥해읍"
  },
  {
    "name": "경북 참새미 작은도서관",
    "address": "경상북도 포항시 북구 흥해읍 달전로 263 (흥해삼도드림파크 관리사무소 앞) ",
    "lat": 36.0676830200105,
    "lng": 129.337931679151,
    "region1": "경상북도",
    "region2": "포항시 북구",
    "region3": "흥해읍"
  },
  {
    "name": "경북 구룡포미르아라작은도서관",
    "address": "경상북도 포항시 남구 구룡포읍 구룡포리 730-3 읍민복지회관 3층 ",
    "lat": 35.9910726620262,
    "lng": 129.552568575616,
    "region1": "경상북도",
    "region2": "포항시 남구",
    "region3": "구룡포읍"
  },
  {
    "name": "경북 포항시립어린이영어도서관",
    "address": "경상북도 포항시 남구 뱃머리길 39 (상도동) ",
    "lat": 36.0067791752397,
    "lng": 129.355178601427,
    "region1": "경상북도",
    "region2": "포항시 남구",
    "region3": "상도동"
  },
  {
    "name": "경북 포항시립포은오천도서관",
    "address": "경상북도 포항시 남구 오천읍 정몽주로 566 ",
    "lat": 35.9685474225791,
    "lng": 129.416658180515,
    "region1": "경상북도",
    "region2": "포항시 남구",
    "region3": "오천읍"
  },
  {
    "name": "경북 연일미르작은도서관",
    "address": "경상북도 포항시 남구 연일읍 유강리 593-2 유강코아루 1단지 ",
    "lat": 36.0069759395523,
    "lng": 129.318692742161,
    "region1": "경상북도",
    "region2": "포항시 남구",
    "region3": "연일읍"
  },
  {
    "name": "경북 포항시립대잠도서관",
    "address": "경상북도 포항시 남구 시청로 1, 문화동 3,4층(대잠동) ",
    "lat": 36.0187800257203,
    "lng": 129.343946746393,
    "region1": "경상북도",
    "region2": "포항시 남구",
    "region3": "대잠동"
  },
  {
    "name": "경북 오천읍 해와달 작은도서관",
    "address": "경상북도 포항시 남구 오천읍 문덕1리 준양참마을 관리사무소 2층 ",
    "lat": 35.9681015089404,
    "lng": 129.411045360205,
    "region1": "경상북도",
    "region2": "포항시 남구",
    "region3": "오천읍"
  },
  {
    "name": "경북 상대큰섬마을작은도서관",
    "address": "경상북도 포항시 남구 대도동 54-1 문화센터 ",
    "lat": 36.0233543885752,
    "lng": 129.364017579391,
    "region1": "경상북도",
    "region2": "포항시 남구",
    "region3": "대도동"
  },
  {
    "name": "경북 송도솔향작은도서관",
    "address": "경상북도 포항시 남구 송도동 254-70 태왕아너스 관리소2층 ",
    "lat": 36.0389529965668,
    "lng": 129.375966363048,
    "region1": "경상북도",
    "region2": "포항시 남구",
    "region3": "송도동"
  },
  {
    "name": "경북 양포작은도서관",
    "address": "경상북도 포항시 남구 장기면 양포항길 28 양포작은도서관 ",
    "lat": 35.8795848568816,
    "lng": 129.518161270973,
    "region1": "경상북도",
    "region2": "포항시 남구",
    "region3": "장기면"
  },
  {
    "name": "경북 해도 바다섬 작은도서관",
    "address": "경상북도 포항시 남구 해도동 69-19 ",
    "lat": 36.0195013856547,
    "lng": 129.37047756894,
    "region1": "경상북도",
    "region2": "포항시 남구",
    "region3": "해도동"
  },
  {
    "name": "경북 호미곶 작은도서관",
    "address": "경상북도 포항시 남구 호미곶면 해맞이로 173 대보2리마을회관 ",
    "lat": 36.0776221377823,
    "lng": 129.561794496009,
    "region1": "경상북도",
    "region2": "포항시 남구",
    "region3": "호미곶면"
  },
  {
    "name": "경북 효곡동그린숲작은도서관",
    "address": "경상북도 포항시 남구 지곡동 479번지 효자그린아파트 관리동 2층 ",
    "lat": 36.0299095950915,
    "lng": 129.323079708415,
    "region1": "경상북도",
    "region2": "포항시 남구",
    "region3": "지곡동"
  },
  {
    "name": "경북 효곡 열린작은도서관",
    "address": "경상북도 포항시 남구 효자동 609 ",
    "lat": 36.0049449031848,
    "lng": 129.343497044058,
    "region1": "경상북도",
    "region2": "포항시 남구",
    "region3": "효자동"
  },
  {
    "name": "경북 두호 두무치 작은도서관",
    "address": "경상북도 포항시 북구 두호동 1045-6 ",
    "lat": 36.0574567974829,
    "lng": 129.374731546483,
    "region1": "경상북도",
    "region2": "포항시 북구",
    "region3": "두호동"
  },
  {
    "name": "경북 양학 부학 작은도서관",
    "address": "경상북도 포항시 북구 득량동 4-1 ",
    "lat": 36.0255098124992,
    "lng": 129.350729165139,
    "region1": "경상북도",
    "region2": "포항시 북구",
    "region3": "득량동"
  },
  {
    "name": "경북 장량 햇살작은도서관",
    "address": "경상북도 포항시 북구 양덕동 1732 ",
    "lat": 36.0847427465975,
    "lng": 129.405698318863,
    "region1": "경상북도",
    "region2": "포항시 북구",
    "region3": "양덕동"
  },
  {
    "name": "경북 장량 다솜작은도서관",
    "address": "경상북도 포항시 북구 양덕동 336-1 ",
    "lat": 36.0916132904358,
    "lng": 129.382786265509,
    "region1": "경상북도",
    "region2": "포항시 북구",
    "region3": "양덕동"
  },
  {
    "name": "경북 해뜰참 작은도서관",
    "address": "경상북도 포항시 북구 장성동 1612 ",
    "lat": 36.0747886292126,
    "lng": 129.381545847987,
    "region1": "경상북도",
    "region2": "포항시 북구",
    "region3": "장성동"
  },
  {
    "name": "경북 동해석곡도서관",
    "address": "경상북도 포항시 남구 동해면 일월로41번길 19 ",
    "lat": 35.990827637648,
    "lng": 129.437493516666,
    "region1": "경상북도",
    "region2": "포항시 남구",
    "region3": "동해면"
  },
  {
    "name": "경북 꿈마루 작은도서관",
    "address": "경상북도 포항시 북구 장량중앙로 115 (양덕동，포항장량5단지LH아파트상가) ",
    "lat": 36.0892930406251,
    "lng": 129.394223409555,
    "region1": "경상북도",
    "region2": "포항시 북구",
    "region3": "양덕동"
  },
  {
    "name": "경북 흥해 내맏이작은도서관",
    "address": "경상북도 포항시 북구 흥해읍 학천리 456 ",
    "lat": 36.0805082507214,
    "lng": 129.330122377678,
    "region1": "경상북도",
    "region2": "포항시 북구",
    "region3": "흥해읍"
  },
  {
    "name": "경북 포항시립연일도서관",
    "address": "경상북도 포항시 남구 연일읍 동문로 53번길 8-17 ",
    "lat": 35.9959100213882,
    "lng": 129.35105524004,
    "region1": "경상북도",
    "region2": "포항시 남구",
    "region3": "연일읍"
  },
  {
    "name": "경북 환호어린이작은도서관",
    "address": "경상북도 포항시 북구 환호동 산51-1 ",
    "lat": 36.0671710333104,
    "lng": 129.389110228114,
    "region1": "경상북도",
    "region2": "포항시 북구",
    "region3": "환호동"
  },
  {
    "name": "경북 그림책마을작은도서관",
    "address": "경상북도 포항시 북구 중앙로298번길 2 ",
    "lat": 36.0393041968513,
    "lng": 129.366445272907,
    "region1": "경상북도",
    "region2": "포항시 북구",
    "region3": "상원동"
  },
  {
    "name": "경북 청림동찬내작은도서관",
    "address": "경상북도 포항시 남구 청림동 1177-12 ",
    "lat": 35.99284517442,
    "lng": 129.404385981216,
    "region1": "경상북도",
    "region2": "포항시 남구",
    "region3": "청림동"
  },
  {
    "name": "경북 어울 작은도서관",
    "address": "경상북도 포항시 북구 새천년대로 909 포항 문화원 1층 ",
    "lat": 36.0533802317005,
    "lng": 129.360521957078,
    "region1": "경상북도",
    "region2": "포항시 북구",
    "region3": "우현동"
  },
  {
    "name": "경북 책이랑바다랑 작은도서관",
    "address": "경상북도 포항시 북구 두호동 1007 ",
    "lat": 36.0609379057013,
    "lng": 129.380049906202,
    "region1": "경상북도",
    "region2": "포항시 북구",
    "region3": "두호동"
  },
  {
    "name": "경북 기계면버드내작은도서관",
    "address": "경상북도 포항시 북구 기계면 현내리 349-2 기계면 복지회관 3층 ",
    "lat": 36.0704777285875,
    "lng": 129.206391108053,
    "region1": "경상북도",
    "region2": "포항시 북구",
    "region3": "기계면"
  },
  {
    "name": "경북 대송큰솔작은도서관",
    "address": "경상북도 포항시 남구 대송면 제내리 630-3 면민복지회관3층 ",
    "lat": 35.978143622673,
    "lng": 129.362253909464,
    "region1": "경상북도",
    "region2": "포항시 남구",
    "region3": "대송면"
  },
  {
    "name": "경북 청하 해아작은도서관",
    "address": "경상북도 포항시 북구 청하면 덕천리 164-1 ",
    "lat": 36.2014581124988,
    "lng": 129.340391998994,
    "region1": "경상북도",
    "region2": "포항시 북구",
    "region3": "청하면"
  },
  {
    "name": "경북 죽장선바위작은도서관",
    "address": "경상북도 포항시 북구 죽장면 입암리 686-4번지 ",
    "lat": 36.1605281277544,
    "lng": 129.09436826756,
    "region1": "경상북도",
    "region2": "포항시 북구",
    "region3": "죽장면"
  },
  {
    "name": "경북 흥해 이팝 작은도서관",
    "address": "경상북도 포항시 북구 흥해읍 성내리 1-4번지 ",
    "lat": 36.1101163269927,
    "lng": 129.347157968357,
    "region1": "경상북도",
    "region2": "포항시 북구",
    "region3": "흥해읍"
  },
  {
    "name": "경북 포항시립구룡포도서관",
    "address": "경상북도 포항시 남구 구룡포읍 병포길52번길 17 ",
    "lat": 35.9829749335714,
    "lng": 129.550219588924,
    "region1": "경상북도",
    "region2": "포항시 남구",
    "region3": "구룡포읍"
  },
  {
    "name": "경북 포항시립영암도서관",
    "address": "경상북도 포항시 남구 상공로46번길 11 ",
    "lat": 36.0125248041121,
    "lng": 129.357741669376,
    "region1": "경상북도",
    "region2": "포항시 남구",
    "region3": "대도동"
  },
  {
    "name": "경남 양산더클래스꿈나눔작은도서관",
    "address": "경상남도 양산시 물금읍 새실로 116 더클래스꿈나눔 작은도서관 ",
    "lat": 35.3118347489622,
    "lng": 129.002099910308,
    "region1": "경상남도",
    "region2": "양산시",
    "region3": "물금읍"
  },
  {
    "name": "경기 안산상록수도서관",
    "address": "경기도 안산시 상록구 본오동 879-5 ",
    "lat": 37.2988299863723,
    "lng": 126.862926956116,
    "region1": "경기도",
    "region2": "안산시 상록구",
    "region3": "본오동"
  },
  {
    "name": "전남 함평군립도서관",
    "address": "전라남도 함평군 함평읍 곤재로 36-33 ",
    "lat": 35.0575229485554,
    "lng": 126.517678169025,
    "region1": "전라남도",
    "region2": "함평군",
    "region3": "함평읍"
  },
  {
    "name": "전북 완주구름골작은도서관",
    "address": "전북특별자치도 완주군 운주면 장선로 124 운주면행정복지센터 3층 ",
    "lat": 36.092503712593,
    "lng": 127.277414712991,
    "region1": "전북특별자치도",
    "region2": "완주군",
    "region3": "운주면"
  },
  {
    "name": "경북 포항시립포은중앙도서관",
    "address": "경상북도 포항시 북구 삼호로 31 ",
    "lat": 36.0439073068164,
    "lng": 129.36753763085,
    "region1": "경상북도",
    "region2": "포항시 북구",
    "region3": "덕수동"
  },
  {
    "name": "경기 부천해밀도서관",
    "address": "경기도 부천시 원미구 옥산로10번길 4 ",
    "lat": 37.4944865782069,
    "lng": 126.780486706387,
    "region1": "경기도",
    "region2": "부천시 원미구",
    "region3": "중동"
  },
  {
    "name": "강원 동해꿈빛마루도서관",
    "address": "강원특별자치도 동해시 천곡로 114 ",
    "lat": 37.5238816137264,
    "lng": 129.118210975859,
    "region1": "강원특별자치도",
    "region2": "동해시",
    "region3": "천곡동"
  },
  {
    "name": "충남 홍성군늘배움터작은도서관",
    "address": "충청남도 홍성군 홍성읍 온천1길 11 홍성군 문화복합커뮤니티센터 2층 ",
    "lat": 36.591711563794,
    "lng": 126.648721168841,
    "region1": "충청남도",
    "region2": "홍성군",
    "region3": "홍성읍"
  },
  {
    "name": "인천 서창어울마당작은도서관",
    "address": "인천광역시 남동구 서창남로 109 서창동 680(세대통합형 복합시설) ",
    "lat": 37.4295430865669,
    "lng": 126.746810075052,
    "region1": "인천광역시",
    "region2": "남동구",
    "region3": "서창동"
  },
  {
    "name": "서울 폭포책방아름인도서관",
    "address": "서울특별시 서대문구 연희로 262-32 ",
    "lat": 37.5814800864535,
    "lng": 126.937088808255,
    "region1": "서울특별시",
    "region2": "서대문구",
    "region3": "홍은동"
  },
  {
    "name": "강원 춘천뜨란채도서관 (춘천시 사립 작은도서관)",
    "address": "강원특별자치도 춘천시 승지골길16번길 47 (뜨란채아파트 관리동 1층) ",
    "lat": 37.8490017712533,
    "lng": 127.745117743389,
    "region1": "강원특별자치도",
    "region2": "춘천시",
    "region3": "퇴계동"
  },
  {
    "name": "경기 화성달빛나래어린이도서관",
    "address": "경기도 화성시 영통로60번길 15 달빛나래어린이도서관 ",
    "lat": 37.237473455966,
    "lng": 127.063023914555,
    "region1": "경기도",
    "region2": "화성시",
    "region3": "반월동"
  },
  {
    "name": "인천 별똥별어린이도서관",
    "address": "인천광역시 계양구 효성동 186-67 도시재생어울림복지센터 5층 ",
    "lat": 37.5291921432286,
    "lng": 126.705696646793,
    "region1": "인천광역시",
    "region2": "계양구",
    "region3": "효성동"
  },
  {
    "name": "강원 춘천스무숲도서관 (춘천시 사립 작은도서관)",
    "address": "강원특별자치도 춘천시 석사동 893 현진에버빌1차아파트 관리동 2층 ",
    "lat": 37.8512453455307,
    "lng": 127.747210962954,
    "region1": "강원특별자치도",
    "region2": "춘천시",
    "region3": "석사동"
  },
  {
    "name": "강원 춘천앞짱어린이도서관",
    "address": "강원특별자치도 춘천시 지석로 64 관리동 2층 ",
    "lat": 37.8504907531295,
    "lng": 127.742749085246,
    "region1": "강원특별자치도",
    "region2": "춘천시",
    "region3": "퇴계동"
  },
  {
    "name": "강원 춘천꿈너머 꿈 도서관",
    "address": "강원특별자치도 춘천시 지석로 29, 휴먼타운 아파트 관리동 2층 꿈너머꿈도서관 (석사동, 휴먼타운아파트) ",
    "lat": 37.8536791329272,
    "lng": 127.73844115362,
    "region1": "강원특별자치도",
    "region2": "춘천시",
    "region3": "석사동"
  },
  {
    "name": "강원 춘천꿈마루도서관",
    "address": "강원특별자치도 춘천시 영서로 2920 꿈마루도서관(사농동, 현대아파트) ",
    "lat": 37.9124293200543,
    "lng": 127.723781385392,
    "region1": "강원특별자치도",
    "region2": "춘천시",
    "region3": "사농동"
  },
  {
    "name": "강원 춘천어울린도서관",
    "address": "강원특별자치도 춘천시 보안길 36 107동(에듀센터)어울린도서관 ",
    "lat": 37.8777149683472,
    "lng": 127.753178222076,
    "region1": "강원특별자치도",
    "region2": "춘천시",
    "region3": "후평동"
  },
  {
    "name": "부산 전포마루작은도서관",
    "address": "부산광역시 부산진구 동성로112번길 50 전포2동 복합문화센터 ",
    "lat": 35.1620246233002,
    "lng": 129.067463777781,
    "region1": "부산광역시",
    "region2": "부산진구",
    "region3": "전포동"
  },
  {
    "name": "경기 파주금촌무지개작은도서관",
    "address": "경기도 파주시 새꽃로 193 금촌역1층, 1번출구 에스컬레이터 옆  ",
    "lat": 37.765555839621,
    "lng": 126.77393492786,
    "region1": "경기도",
    "region2": "파주시",
    "region3": "금촌동"
  },
  {
    "name": "강원 인제기적의도서관",
    "address": "강원특별자치도 인제군 인제읍 인제로140번길 52-7 인제 기적의도서관 ",
    "lat": 38.0626394977799,
    "lng": 128.170632541344,
    "region1": "강원특별자치도",
    "region2": "인제군",
    "region3": "인제읍"
  },
  {
    "name": "울산 강동바다도서관",
    "address": "울산광역시 북구 산하중앙3로 62 강동바다도서관 ",
    "lat": 35.6309183043579,
    "lng": 129.436175378625,
    "region1": "울산광역시",
    "region2": "북구",
    "region3": "산하동"
  },
  {
    "name": "경기 부천시립역곡밝은도서관",
    "address": "경기도 부천시 소사구 경인로536번길 37 ",
    "lat": 37.4844662851853,
    "lng": 126.81592208525,
    "region1": "경기도",
    "region2": "부천시 소사구",
    "region3": "괴안동"
  },
  {
    "name": "강원 원주샘마루도서관",
    "address": "강원특별자치도 원주시 지정면 가곡로 61 샘마루도서관 ",
    "lat": 37.3767121889658,
    "lng": 127.876820692467,
    "region1": "강원특별자치도",
    "region2": "원주시",
    "region3": "지정면"
  },
  {
    "name": "서울 서초구립방배숲환경도서관",
    "address": "서울특별시 서초구 방배동 126-1 서초구립방배숲환경도서관 ",
    "lat": 37.4889626332054,
    "lng": 127.000050317476,
    "region1": "서울특별시",
    "region2": "서초구",
    "region3": "방배동"
  },
  {
    "name": "경북 의성LH의성상리작은도서관",
    "address": "경상북도 의성군 의성읍 동서1길 114 LH의성상리작은도서관 ",
    "lat": 36.3505410448429,
    "lng": 128.708933138899,
    "region1": "경상북도",
    "region2": "의성군",
    "region3": "의성읍"
  },
  {
    "name": "경북 의성다인면작은도서관",
    "address": "경상북도 의성군 다인면 서부로 2798 다인면작은도서관 ",
    "lat": 36.4503161069311,
    "lng": 128.351994696206,
    "region1": "경상북도",
    "region2": "의성군",
    "region3": "다인면"
  },
  {
    "name": "경북 의성금성면작은도서관",
    "address": "경상북도 의성군 금성면 탑리길 65 ",
    "lat": 36.256982569763,
    "lng": 128.680868038504,
    "region1": "경상북도",
    "region2": "의성군",
    "region3": "금성면"
  },
  {
    "name": "경북 의성봉양온누리터도서관",
    "address": "경상북도 의성군 봉양면 도리원3길 27-8 봉양 온누리터 도서관 ",
    "lat": 36.3002686091514,
    "lng": 128.576278378389,
    "region1": "경상북도",
    "region2": "의성군",
    "region3": "봉양면"
  },
  {
    "name": "서울 구로구고척열린도서관",
    "address": "서울특별시 구로구 경인로43길 49 MD동 3,4층 고척열린도서관 ",
    "lat": 37.4991318775075,
    "lng": 126.857590075507,
    "region1": "서울특별시",
    "region2": "구로구",
    "region3": "고척동"
  },
  {
    "name": "서울 양천구모새미작은도서관",
    "address": "서울특별시 양천구 목동중앙서로7길 16-18 모새미작은도서관 ",
    "lat": 37.5334119692859,
    "lng": 126.866135436172,
    "region1": "서울특별시",
    "region2": "양천구",
    "region3": "목동"
  },
  {
    "name": "전남 광양광영도서관",
    "address": "전라남도 광양시 광영로 74 광영도서관 ",
    "lat": 34.9621822003037,
    "lng": 127.72074970421,
    "region1": "전라남도",
    "region2": "광양시",
    "region3": "광영동"
  },
  {
    "name": "전북 순창군적성작은도서관",
    "address": "전북특별자치도 순창군 적성면 적성로 125 적성작은도서관 ",
    "lat": 35.3971851120195,
    "lng": 127.207418189362,
    "region1": "전북특별자치도",
    "region2": "순창군",
    "region3": "적성면"
  },
  {
    "name": "전북 순창군유등작은도서관",
    "address": "전북특별자치도 순창군 유등면 외이2길 4 나이스센터2층 유등작은도서관 ",
    "lat": 35.3613036147501,
    "lng": 127.1862347321,
    "region1": "전북특별자치도",
    "region2": "순창군",
    "region3": "유등면"
  },
  {
    "name": "전북 순창군풍산작은도서관",
    "address": "전북특별자치도 순창군 풍산면 금풍로 1006-2 산울림센터 1층 풍산작은도서관 ",
    "lat": 35.3364707929173,
    "lng": 127.137982230868,
    "region1": "전북특별자치도",
    "region2": "순창군",
    "region3": "풍산면"
  },
  {
    "name": "전북 순창군인계작은도서관",
    "address": "전북특별자치도 순창군 순창읍 순창5길 18 순창군립도서관 ",
    "lat": 35.3736918167902,
    "lng": 127.140808146541,
    "region1": "전북특별자치도",
    "region2": "순창군",
    "region3": "순창읍"
  },
  {
    "name": "전북 순창군복흥작은도서관",
    "address": "전북특별자치도 순창군 순창읍 순창5길 18, 순창군립도서관 ",
    "lat": 35.3736918167902,
    "lng": 127.140808146541,
    "region1": "전북특별자치도",
    "region2": "순창군",
    "region3": "순창읍"
  },
  {
    "name": "전북 순창군팔덕작은도서관",
    "address": "전북특별자치도 순창군 팔덕면 강천로 350 ",
    "lat": 35.392786061018,
    "lng": 127.095425188241,
    "region1": "전북특별자치도",
    "region2": "순창군",
    "region3": "팔덕면"
  },
  {
    "name": "전북 순창군쌍치작은도서관",
    "address": "전북특별자치도 순창군 순창읍 순창5길 18 순창군립도서관 ",
    "lat": 35.3736918167902,
    "lng": 127.140808146541,
    "region1": "전북특별자치도",
    "region2": "순창군",
    "region3": "순창읍"
  },
  {
    "name": "전북 순창군동계작은도서관",
    "address": "전북특별자치도 순창군 동계면 동계1길 14 동계작은도서관 ",
    "lat": 35.4407867561404,
    "lng": 127.243488210611,
    "region1": "전북특별자치도",
    "region2": "순창군",
    "region3": "동계면"
  },
  {
    "name": "경남 양산수사랑작은도서관",
    "address": "경상남도 양산시 물금읍 물금로 76 커뮤니티센터 1층 작은도서관 ",
    "lat": 35.3118003483284,
    "lng": 128.992051240033,
    "region1": "경상남도",
    "region2": "양산시",
    "region3": "물금읍"
  },
  {
    "name": "광주 남구효천어울림도서관",
    "address": "광주광역시 남구 효우로 208(행암동) 효천어울림도서관 ",
    "lat": 35.1020690387412,
    "lng": 126.893758337752,
    "region1": "광주광역시",
    "region2": "남구",
    "region3": "행암동"
  },
  {
    "name": "경기 여주흥천도서관",
    "address": "경기도 여주시 흥천면 효자로 121 ",
    "lat": 37.3308441422357,
    "lng": 127.544309189103,
    "region1": "경기도",
    "region2": "여주시",
    "region3": "흥천면"
  },
  {
    "name": "서울 강남구립개포하늘꿈도서관",
    "address": "서울특별시 강남구 개포로 110길 54 강남구립개포하늘꿈도서관 ",
    "lat": 37.4906692944468,
    "lng": 127.080356908422,
    "region1": "서울특별시",
    "region2": "강남구",
    "region3": "일원동"
  },
  {
    "name": "경남 양산꿈꾸는내안애작은도서관",
    "address": "경상남도 양산시 물금읍 물금로 160 양우내안애2차아파트 커뮤니티센터 지하1층 ",
    "lat": 35.3171743820709,
    "lng": 128.998427617291,
    "region1": "경상남도",
    "region2": "양산시",
    "region3": "물금읍"
  },
  {
    "name": "충북 보은군립도서관",
    "address": "충청북도 보은군 보은읍 뱃들로 68-22 보은군립도서관 ",
    "lat": 36.4875329231911,
    "lng": 127.723198572478,
    "region1": "충청북도",
    "region2": "보은군",
    "region3": "보은읍"
  },
  {
    "name": "경북 쌍림작은도서관",
    "address": "경상북도 고령군 쌍림면 대가야로 600 ",
    "lat": 35.678647107392,
    "lng": 128.241947942569,
    "region1": "경상북도",
    "region2": "고령군",
    "region3": "쌍림면"
  },
  {
    "name": "울산 북구송정나래도서관",
    "address": "울산광역시 북구 화산로 89 (송정복합문화센터 3층) ",
    "lat": 35.5999923860059,
    "lng": 129.365614921126,
    "region1": "울산광역시",
    "region2": "북구",
    "region3": "화봉동"
  },
  {
    "name": "경북 고령다산도서관",
    "address": "경상북도 고령군 다산면 다산로 681 다산도서관  ",
    "lat": 35.8226936301654,
    "lng": 128.452112158638,
    "region1": "경상북도",
    "region2": "고령군",
    "region3": "다산면"
  },
  {
    "name": "전북 청우 작은도서관",
    "address": "전북특별자치도 부안군 부안읍 성터길 9 ",
    "lat": 35.7305288299374,
    "lng": 126.729807940149,
    "region1": "전북특별자치도",
    "region2": "부안군",
    "region3": "부안읍"
  },
  {
    "name": "광주 서빛마루도서관",
    "address": "광주광역시 서구 풍암공원로 30 4층 ",
    "lat": 35.1304663941851,
    "lng": 126.880601768662,
    "region1": "광주광역시",
    "region2": "서구",
    "region3": "풍암동"
  },
  {
    "name": "전북 혁신복합문화센터작은도서관",
    "address": "전북특별자치도 전주시 덕진구 틀못1길 20 ",
    "lat": 35.8412735296727,
    "lng": 127.057303734489,
    "region1": "전북특별자치도",
    "region2": "전주시 덕진구",
    "region3": "장동"
  },
  {
    "name": "부산 토곡어린이작은도서관",
    "address": "부산광역시 연제구 연산동 476-7번지 토곡문화의숲(가칭) 2층 ",
    "lat": 35.1857400903065,
    "lng": 129.108751691797,
    "region1": "부산광역시",
    "region2": "연제구",
    "region3": "연산동"
  },
  {
    "name": "대전 신규장각도서관",
    "address": "대전광역시 유성구 테크노10로 33 2층 ",
    "lat": 36.4165621723175,
    "lng": 127.410471791538,
    "region1": "대전광역시",
    "region2": "유성구",
    "region3": "탑립동"
  },
  {
    "name": "경기 고양시립높빛도서관",
    "address": "경기도 고양시 덕양구 푸른마을로 34-8, 높빛도서관(고양동) ",
    "lat": 37.7100793046962,
    "lng": 126.90529925153,
    "region1": "경기도",
    "region2": "고양시 덕양구",
    "region3": "고양동"
  },
  {
    "name": "인천 공립송현작은도서관",
    "address": "인천광역시 동구 솔빛로22번길 2 송현1.2동 복합청사 5층 ",
    "lat": 37.4764994890389,
    "lng": 126.635573596512,
    "region1": "인천광역시",
    "region2": "동구",
    "region3": "송현동"
  },
  {
    "name": "경기 광주시만선도서관",
    "address": "경기도 광주시 곤지암읍 신만로 499 만선문화복지센터 만선도서관 ",
    "lat": 37.3662858666819,
    "lng": 127.403916767601,
    "region1": "경기도",
    "region2": "광주시",
    "region3": "곤지암읍"
  },
  {
    "name": "서울 마포나루메타버스도서관",
    "address": "서울특별시 마포구 마포대로 8 호텔 나루 1층 ",
    "lat": 37.5373071864777,
    "lng": 126.944273138606,
    "region1": "서울특별시",
    "region2": "마포구",
    "region3": "마포동"
  },
  {
    "name": "경북 마뜰작은도서관",
    "address": "경상북도 안동시 전거리1길 93 용상동주민센터 2층 ",
    "lat": 36.5592274930821,
    "lng": 128.7496077973,
    "region1": "경상북도",
    "region2": "안동시",
    "region3": "용상동"
  },
  {
    "name": "경북 IBK기업은행과 함께하는 책읽는 기쁨 작은도서관",
    "address": "경상북도 안동시 제비원로 93, 평생학습관 (당북동) ",
    "lat": 36.5604594127362,
    "lng": 128.720206908186,
    "region1": "경상북도",
    "region2": "안동시",
    "region3": "당북동"
  },
  {
    "name": "부산 전포어울더울작은도서관",
    "address": "부산광역시 부산진구 서전로58번길 145(전포동), 3층 전포어울더울작은도서관 ",
    "lat": 35.1513306442224,
    "lng": 129.066481250287,
    "region1": "부산광역시",
    "region2": "부산진구",
    "region3": "전포동"
  },
  {
    "name": "대구 수성구립황금책문화센터도서관",
    "address": "대구광역시 수성구 청솔로2길 64 1층 ",
    "lat": 35.847213612475,
    "lng": 128.623726456099,
    "region1": "대구광역시",
    "region2": "수성구",
    "region3": "황금동"
  },
  {
    "name": "서울 영등포생각공장도서관",
    "address": "서울특별시 영등포구 문래북로 105 영등포생각공장도서관 ",
    "lat": 37.5201212421417,
    "lng": 126.897195669575,
    "region1": "서울특별시",
    "region2": "영등포구",
    "region3": "당산동1가"
  },
  {
    "name": "경북 안동시립중앙도서관",
    "address": "경상북도 안동시 옥동 산17번지 ",
    "lat": 36.5679399051466,
    "lng": 128.700329469693,
    "region1": "경상북도",
    "region2": "안동시",
    "region3": "옥동"
  },
  {
    "name": "경북 안동시립웅부도서관",
    "address": "경상북도 안동시 태사길 78(동문동) ",
    "lat": 36.5661871618629,
    "lng": 128.735292941091,
    "region1": "경상북도",
    "region2": "안동시",
    "region3": "동문동"
  },
  {
    "name": "경북 안동시립어린이도서관",
    "address": "경상북도 안동시 정하동 258-1번지 ",
    "lat": 36.5484207932501,
    "lng": 128.729345234753,
    "region1": "경상북도",
    "region2": "안동시",
    "region3": "정하동"
  },
  {
    "name": "서울 구로구항동푸른도서관",
    "address": "서울특별시 구로구 연동로 290-46 항동푸른도서관 ",
    "lat": 37.4847517655523,
    "lng": 126.82471761839,
    "region1": "서울특별시",
    "region2": "구로구",
    "region3": "항동"
  },
  {
    "name": "전남 학산도서관",
    "address": "전라남도 영암군 학산면 영산로 36 학산도서관 ",
    "lat": 34.7264173712746,
    "lng": 126.567130170875,
    "region1": "전라남도",
    "region2": "영암군",
    "region3": "학산면"
  },
  {
    "name": "경기 안산월피도서관",
    "address": "경기도 안산시 상록구 월피동 491 ",
    "lat": 37.3362074207828,
    "lng": 126.845560268884,
    "region1": "경기도",
    "region2": "안산시 상록구",
    "region3": "월피동"
  },
  {
    "name": "전북 무주오색단풍작은도서관",
    "address": "전북특별자치도 무주군 적상면 적상산로 59 오색단풍작은도서관 ",
    "lat": 35.9462067035966,
    "lng": 127.659624782529,
    "region1": "전북특별자치도",
    "region2": "무주군",
    "region3": "적상면"
  },
  {
    "name": "부산 아랫서발작은도서관",
    "address": "부산광역시 영도구 동삼오션로 27 동삼2동 행정복지센터 ",
    "lat": 35.0683938182814,
    "lng": 129.08301575313,
    "region1": "부산광역시",
    "region2": "영도구",
    "region3": "동삼동"
  },
  {
    "name": "부산 우2동 어린이작은도서관",
    "address": "부산광역시 해운대구 해운대로383번가길 7 우2동 행정복지센터 2층 ",
    "lat": 35.1712079612613,
    "lng": 129.139934372577,
    "region1": "부산광역시",
    "region2": "해운대구",
    "region3": "우동"
  },
  {
    "name": "경기 의왕시왕송호수도서관",
    "address": "경기도 의왕시 왕송못동로 307 1층(월암동) ",
    "lat": 37.3071076256264,
    "lng": 126.95314577313,
    "region1": "경기도",
    "region2": "의왕시",
    "region3": "월암동"
  },
  {
    "name": "충남 충남도서관공동보존자료관",
    "address": "충청남도 홍성군 홍북읍 도청대로 577 ",
    "lat": 36.6559168847563,
    "lng": 126.669672591127,
    "region1": "충청남도",
    "region2": "홍성군",
    "region3": "홍북읍"
  },
  {
    "name": "경기 의왕시백합작은도서관",
    "address": "경기도 의왕시 오전로 179 관리실지하 1층 ",
    "lat": 37.3569171778559,
    "lng": 126.968951359595,
    "region1": "경기도",
    "region2": "의왕시",
    "region3": "오전동"
  },
  {
    "name": "경기 의왕시대명구름채작은도서관",
    "address": "경기도 의왕시 포도원로 46 203동 1층 ",
    "lat": 37.3626216691794,
    "lng": 126.967265583308,
    "region1": "경기도",
    "region2": "의왕시",
    "region3": "오전동"
  },
  {
    "name": "경기 의왕시이음도서관",
    "address": "경기도 의왕시 포일세거리로 93 306동 지하 커뮤니티 센터 이음도서관  ",
    "lat": 37.4047302480675,
    "lng": 126.986266410078,
    "region1": "경기도",
    "region2": "의왕시",
    "region3": "포일동"
  },
  {
    "name": "경기 의왕시사통이네 작은도서관",
    "address": "경기도 의왕시 청계로 156 2층 ",
    "lat": 37.4010447025104,
    "lng": 127.006456370812,
    "region1": "경기도",
    "region2": "의왕시",
    "region3": "청계동"
  },
  {
    "name": "경기 의왕시행복작은도서관",
    "address": "경기도 의왕시 행복마을3로 18 109동 1층 에듀센터(고천동, 오봉산마을 1단지) ",
    "lat": 37.3422928616258,
    "lng": 126.974694586976,
    "region1": "경기도",
    "region2": "의왕시",
    "region3": "고천동"
  },
  {
    "name": "경기 의왕시숲속옹달샘도서관",
    "address": "경기도 의왕시 포일동 ",
    "lat": 37.3965908527996,
    "lng": 126.98961006605,
    "region1": "경기도",
    "region2": "의왕시",
    "region3": "포일동"
  },
  {
    "name": "서울 중랑구장미마을소망작은도서관",
    "address": "서울특별시 중랑구 묵동 240-75번지 ",
    "lat": 37.611012440967,
    "lng": 127.075190180082,
    "region1": "서울특별시",
    "region2": "중랑구",
    "region3": "묵동"
  },
  {
    "name": "경남 양산시유림숲작은도서관",
    "address": "경상남도 양산시 물금읍 범구로 14 지하1층 작은도서관 ",
    "lat": 35.3268002893287,
    "lng": 129.011151832235,
    "region1": "경상남도",
    "region2": "양산시",
    "region3": "물금읍"
  },
  {
    "name": "경기 의왕시들고지작은도서관",
    "address": "경기도 의왕시 교동길 27, 들고지작은도서관 (이동) ",
    "lat": 37.3344216806179,
    "lng": 126.96652799605,
    "region1": "경기도",
    "region2": "의왕시",
    "region3": "이동"
  },
  {
    "name": "강원 철원쉬리마을작은도서관",
    "address": "강원특별자치도 철원군 김화읍 호국로 6510 ",
    "lat": 38.2502361091539,
    "lng": 127.421327629042,
    "region1": "강원특별자치도",
    "region2": "철원군",
    "region3": "김화읍"
  },
  {
    "name": "경기 구리시립갈매도서관",
    "address": "경기도 구리시 갈매중앙로 80 갈매도서관 ",
    "lat": 37.6314300098105,
    "lng": 127.117797457534,
    "region1": "경기도",
    "region2": "구리시",
    "region3": "갈매동"
  },
  {
    "name": "충남 천안성정1동작은도서관",
    "address": "충청남도 천안시 서북구 선영8길 7(성정동 135-4) ",
    "lat": 36.8150358973071,
    "lng": 127.142869119201,
    "region1": "충청남도",
    "region2": "천안시 서북구",
    "region3": "성정동"
  },
  {
    "name": "충남 천안북면작은도서관",
    "address": "충청남도 천안시 동남구 북면 위례성로 661-16 북면작은도서관 ",
    "lat": 36.8227049286054,
    "lng": 127.272218701012,
    "region1": "충청남도",
    "region2": "천안시 동남구",
    "region3": "북면"
  },
  {
    "name": "충남 천안목천읍작은도서관",
    "address": "충청남도 천안시 동남구 목천읍 서리2길 31 목천초등학교 ",
    "lat": 36.7877442589915,
    "lng": 127.234834085323,
    "region1": "충청남도",
    "region2": "천안시 동남구",
    "region3": "목천읍"
  },
  {
    "name": "충남 천안천안축구센터작은도서관",
    "address": "충청남도 천안시 서북구 성정동 602-1 천안축구센터 ",
    "lat": 36.8259528707034,
    "lng": 127.150221987916,
    "region1": "충청남도",
    "region2": "천안시 서북구",
    "region3": "성정동"
  },
  {
    "name": "충남 천안신안동작은도서관",
    "address": "충청남도 천안시 동남구 신부동 492-4 신부충효교실 2층 ",
    "lat": 36.8187547820814,
    "lng": 127.161521982262,
    "region1": "충청남도",
    "region2": "천안시 동남구",
    "region3": "신부동"
  },
  {
    "name": "충남 천안광덕작은도서관",
    "address": "충청남도 천안시 동남구 광덕면 신흥리 3길 76 ",
    "lat": 36.6949742770034,
    "lng": 127.110585257842,
    "region1": "충청남도",
    "region2": "천안시 동남구",
    "region3": "광덕면"
  },
  {
    "name": "충남 천안입장면작은도서관",
    "address": "충청남도 천안시 서북구 입장면 하장리 101-1 ",
    "lat": 36.9133850215171,
    "lng": 127.218310554495,
    "region1": "충청남도",
    "region2": "천안시 서북구",
    "region3": "입장면"
  },
  {
    "name": "충남 천안문성동작은도서관",
    "address": "충청남도 천안시 동남구 성황동 35-13 ",
    "lat": 36.8141913022557,
    "lng": 127.152155454044,
    "region1": "충청남도",
    "region2": "천안시 동남구",
    "region3": "성황동"
  },
  {
    "name": "충남 천안풍세면작은도서관",
    "address": "충남 천안시 동남구 풍세면 상정1길 3 ",
    "lat": 36.7218216671356,
    "lng": 127.118768139661,
    "region1": "충청남도",
    "region2": "천안시 동남구",
    "region3": "풍세면"
  },
  {
    "name": "충남 천안성남면작은도서관",
    "address": "충청남도 천안시 동남구 성남면 신사대화로 149, 성남면사무소 (좌측건물) ",
    "lat": 36.7422277590415,
    "lng": 127.236996726731,
    "region1": "충청남도",
    "region2": "천안시 동남구",
    "region3": "성남면"
  },
  {
    "name": "충남 천안일봉동작은도서관",
    "address": "충청남도 천안시 동남구 차돌고개4길 18 (다가동) ",
    "lat": 36.7991242119326,
    "lng": 127.135360739745,
    "region1": "충청남도",
    "region2": "천안시 동남구",
    "region3": "다가동"
  },
  {
    "name": "충남 천안중앙동작은도서관(천안시)",
    "address": "충청남도 천안시 동남구 영성로 69-1 (오룡동) ",
    "lat": 36.8045461123934,
    "lng": 127.14964900617,
    "region1": "충청남도",
    "region2": "천안시 동남구",
    "region3": "오룡동"
  },
  {
    "name": "충남 천안천안원성2동작은도서관",
    "address": "충청남도 천안시 동남구 원거리8길 43 (원성동) ",
    "lat": 36.8001644438098,
    "lng": 127.158155435724,
    "region1": "충청남도",
    "region2": "천안시 동남구",
    "region3": "원성동"
  },
  {
    "name": "경기 화성늘봄이음터작은도서관",
    "address": "경기도 화성시 동탄대로24길 49 늘봄이음터 3층 작은도서관 ",
    "lat": 37.2170171556618,
    "lng": 127.109335853597,
    "region1": "경기도",
    "region2": "화성시",
    "region3": "영천동"
  },
  {
    "name": "경기 광주시퇴촌도서관",
    "address": "경기도 광주시 퇴촌면 탑골길 37(퇴촌면) ",
    "lat": 37.4669573996562,
    "lng": 127.310777967691,
    "region1": "경기도",
    "region2": "광주시",
    "region3": "퇴촌면"
  },
  {
    "name": "서울 강동구북카페도서관다독다독강일점",
    "address": "서울특별시 강동구 강동구 아리수로93가길 110, 1층 작은도서관 ",
    "lat": 37.5737802103685,
    "lng": 127.173179836384,
    "region1": "서울특별시",
    "region2": "강동구",
    "region3": "강일동"
  },
  {
    "name": "강원 태백산소드림도서관",
    "address": "강원특별자치도 태백시 장수길 33  ",
    "lat": 37.1799990976078,
    "lng": 128.984988625956,
    "region1": "강원특별자치도",
    "region2": "태백시",
    "region3": "황지동"
  },
  {
    "name": "강원 태백시립도서관",
    "address": "강원특별자치도 태백시 평화길12 ",
    "lat": 37.0997038512426,
    "lng": 129.021980175613,
    "region1": "강원특별자치도",
    "region2": "태백시",
    "region3": "장성동"
  },
  {
    "name": "경기 화성시양감작은도서관",
    "address": "경기도 화성시 양감면 초록로 7 양감면사무소 작은도서관 ",
    "lat": 37.0817074385543,
    "lng": 126.945437363246,
    "region1": "경기도",
    "region2": "화성시",
    "region3": "양감면"
  },
  {
    "name": "서울 강서구채움작은도서관 ",
    "address": "서울특별시 강서구 개화동로23길 20 방화2동주민센터 2층 ",
    "lat": 37.5667150754469,
    "lng": 126.806740270973,
    "region1": "서울특별시",
    "region2": "강서구",
    "region3": "방화동"
  },
  {
    "name": "서울 강서구글벗누리작은도서관 ",
    "address": "서울특별시 강서구 방화동로 124 방화1동주민센터 2층 ",
    "lat": 37.5713149791612,
    "lng": 126.812191169462,
    "region1": "서울특별시",
    "region2": "강서구",
    "region3": "방화동"
  },
  {
    "name": "서울 강서구송정작은도서관 ",
    "address": "서울특별시 강서구 송정로 45 공항동주민센터 2층 ",
    "lat": 37.5587828080206,
    "lng": 126.810074279462,
    "region1": "서울특별시",
    "region2": "강서구",
    "region3": "공항동"
  },
  {
    "name": "서울 강서구아리향기작은도서관 ",
    "address": "서울특별시 강서구 양천로67가길 63 염창동주민센터 2층 ",
    "lat": 37.5537713605699,
    "lng": 126.870965709884,
    "region1": "서울특별시",
    "region2": "강서구",
    "region3": "염창동"
  },
  {
    "name": "서울 강서구생각열매작은도서관 ",
    "address": "서울특별시 강서구 공항대로53가길 55 등촌1동주민센터 2층 ",
    "lat": 37.5558286920144,
    "lng": 126.858909826177,
    "region1": "서울특별시",
    "region2": "강서구",
    "region3": "등촌동"
  },
  {
    "name": "서울 강서구등마루골작은도서관 ",
    "address": "서울특별시 강서구 등촌로 143 등촌2동주민센터 2층 ",
    "lat": 37.5426582697335,
    "lng": 126.862503524329,
    "region1": "서울특별시",
    "region2": "강서구",
    "region3": "등촌동"
  },
  {
    "name": "서울 강서구큰마음작은도서관 ",
    "address": "서울특별시 강서구 화곡로63길 96 등촌3동주민센터 2층 ",
    "lat": 37.5588877147909,
    "lng": 126.847918503729,
    "region1": "서울특별시",
    "region2": "강서구",
    "region3": "등촌동"
  },
  {
    "name": "서울 강서구초록향기작은도서관 ",
    "address": "서울특별시 강서구 초록마을로5길 29 화곡본동주민센터 2층 ",
    "lat": 37.5440482285823,
    "lng": 126.847663387088,
    "region1": "서울특별시",
    "region2": "강서구",
    "region3": "화곡동"
  },
  {
    "name": "서울 강서구꿈터작은도서관 ",
    "address": "서울특별시 강서구 곰달래로 79 화곡1동주민센터 3층 ",
    "lat": 37.5305085792254,
    "lng": 126.841592468912,
    "region1": "서울특별시",
    "region2": "강서구",
    "region3": "화곡동"
  },
  {
    "name": "서울 강서구옹달샘작은도서관 ",
    "address": "서울특별시 강서구 곰달래로37길 13 화곡2동주민센터 2층 ",
    "lat": 37.5318278393342,
    "lng": 126.85448849162,
    "region1": "서울특별시",
    "region2": "강서구",
    "region3": "화곡동"
  },
  {
    "name": "서울 강서구책마루작은도서관 ",
    "address": "서울특별시 강서구 강서로33가길 17 화곡3동주민센터 2층 ",
    "lat": 37.5425263107981,
    "lng": 126.838413904522,
    "region1": "서울특별시",
    "region2": "강서구",
    "region3": "화곡동"
  },
  {
    "name": "서울 강서구볏고을작은도서관 ",
    "address": "서울특별시 강서구 곰달래로57가길 26 화곡4동주민센터2층 ",
    "lat": 37.5348023810775,
    "lng": 126.860748859236,
    "region1": "서울특별시",
    "region2": "강서구",
    "region3": "화곡동"
  },
  {
    "name": "서울 강서구책향기작은도서관 ",
    "address": "서울특별시 강서구 강서로47길 54 발산1동주민센터 2층 ",
    "lat": 37.5531162952955,
    "lng": 126.833177427574,
    "region1": "서울특별시",
    "region2": "강서구",
    "region3": "내발산동"
  },
  {
    "name": "서울 강서구도리샘작은도서관 ",
    "address": "서울특별시 강서구 허준로 202 가양3동주민센터 2층 ",
    "lat": 37.5610869730624,
    "lng": 126.860557684934,
    "region1": "서울특별시",
    "region2": "강서구",
    "region3": "가양동"
  },
  {
    "name": "서울 강서구역마을작은도서관 ",
    "address": "서울특별시 강서구 화곡로 312 화곡6동주민센터 2층 ",
    "lat": 37.5518250293579,
    "lng": 126.850070029412,
    "region1": "서울특별시",
    "region2": "강서구",
    "region3": "화곡동"
  },
  {
    "name": "서울 강서구배다리작은도서관 ",
    "address": "서울특별시 강서구 곰달래로25길 45 화곡8동주민센터 2층 ",
    "lat": 37.5326957734345,
    "lng": 126.848330353668,
    "region1": "서울특별시",
    "region2": "강서구",
    "region3": "화곡동"
  },
  {
    "name": "서울 강서구내발산작은도서관 ",
    "address": "서울특별시 강서구 강서로52길 89 내발산문화센터 5층 ",
    "lat": 37.5574961677985,
    "lng": 126.843197803729,
    "region1": "서울특별시",
    "region2": "강서구",
    "region3": "내발산동"
  },
  {
    "name": "서울 강서구허준마을작은도서관 ",
    "address": "서울특별시 강서구 허준로 93 가양2동주민센터 2층 ",
    "lat": 37.567398916698,
    "lng": 126.851271247021,
    "region1": "서울특별시",
    "region2": "강서구",
    "region3": "가양동"
  },
  {
    "name": "서울 강서구방그리나작은도서관 ",
    "address": "서울특별시 강서구 금낭화로24길 5 방화3동주민센터 2층 ",
    "lat": 37.5787189637477,
    "lng": 126.813657528897,
    "region1": "서울특별시",
    "region2": "강서구",
    "region3": "방화동"
  },
  {
    "name": "서울 강서구수명산작은도서관 ",
    "address": "서울특별시 강서구 수명로1길 131 내발산동공공기숙사 ",
    "lat": 37.5540613075652,
    "lng": 126.825175932771,
    "region1": "서울특별시",
    "region2": "강서구",
    "region3": "내발산동"
  },
  {
    "name": "서울 강서구솔뫼작은도서관",
    "address": "서울특별시 강서구 가로공원로77길 30 2층 ",
    "lat": 37.538111861031,
    "lng": 126.838673825189,
    "region1": "서울특별시",
    "region2": "강서구",
    "region3": "화곡동"
  },
  {
    "name": "서울 강서구가람작은도서관",
    "address": "서울특별시 강서구 양천로57길 36 ",
    "lat": 37.5646273830484,
    "lng": 126.853519560541,
    "region1": "서울특별시",
    "region2": "강서구",
    "region3": "가양동"
  },
  {
    "name": "서울 강서구초록동작은도서관 ",
    "address": "서울특별시 강서구 초록마을로14길 36, 2층 ",
    "lat": 37.5411487321798,
    "lng": 126.84850989004,
    "region1": "서울특별시",
    "region2": "강서구",
    "region3": "화곡동"
  },
  {
    "name": "서울 강서구등빛도서관 ",
    "address": "서울특별시 강서구 강서로62길 48 ",
    "lat": 37.5624550552344,
    "lng": 126.842374751313,
    "region1": "서울특별시",
    "region2": "강서구",
    "region3": "등촌동"
  },
  {
    "name": "서울 강서구가양도서관 ",
    "address": "서울특별시 강서구 양천로61길 101 ",
    "lat": 37.5595866001609,
    "lng": 126.86502518738,
    "region1": "서울특별시",
    "region2": "강서구",
    "region3": "가양동"
  },
  {
    "name": "서울 강서구강서영어도서관 ",
    "address": "서울특별시 강서구 곰달래로57가길 26, 2층 ",
    "lat": 37.5348023810775,
    "lng": 126.860748859236,
    "region1": "서울특별시",
    "region2": "강서구",
    "region3": "화곡동"
  },
  {
    "name": "서울 강서구길꽃어린이도서관 ",
    "address": "서울특별시 강서구 금낭화로24길 5 ",
    "lat": 37.5787189637477,
    "lng": 126.813657528897,
    "region1": "서울특별시",
    "region2": "강서구",
    "region3": "방화동"
  },
  {
    "name": "서울 강서구꿈꾸는어린이도서관 ",
    "address": "서울특별시 강서구 공항대로 615 ",
    "lat": 37.5473371806653,
    "lng": 126.873319234701,
    "region1": "서울특별시",
    "region2": "강서구",
    "region3": "염창동"
  },
  {
    "name": "서울 강서구우장산숲속도서관 ",
    "address": "서울특별시 강서구 우현로34, 4층 ",
    "lat": 37.5482885936639,
    "lng": 126.84183628546,
    "region1": "서울특별시",
    "region2": "강서구",
    "region3": "화곡동"
  },
  {
    "name": "서울 강서구푸른들청소년도서관",
    "address": "서울특별시 강서구 강서로45다길 71 ",
    "lat": 37.5446566550337,
    "lng": 126.835171321129,
    "region1": "서울특별시",
    "region2": "강서구",
    "region3": "화곡동"
  },
  {
    "name": "서울 강서구해뜰작은도서관 ",
    "address": "서울특별시 강서구 방화대로48길 40 방화2종합사회복지관 3층 ",
    "lat": 37.5742556295155,
    "lng": 126.820167898164,
    "region1": "서울특별시",
    "region2": "강서구",
    "region3": "방화동"
  },
  {
    "name": "서울 강서구옹기종기작은도서관 ",
    "address": "서울특별시 강서구 공항대로61길 50 염창지역정보센터 내 ",
    "lat": 37.5530246776856,
    "lng": 126.866724041912,
    "region1": "서울특별시",
    "region2": "강서구",
    "region3": "염창동"
  },
  {
    "name": "서울 강서구도란도란쉼터작은도서관 ",
    "address": "서울특별시 강서구 허준로 30 가양1동주민센터 2층 ",
    "lat": 37.5694881576939,
    "lng": 126.844704641864,
    "region1": "서울특별시",
    "region2": "강서구",
    "region3": "가양동"
  },
  {
    "name": "충북 제천산책도서관",
    "address": "충청북도 제천시 용두대로15길 18-13 하소생활문화센터 산책 ",
    "lat": 37.1397987202032,
    "lng": 128.199712685169,
    "region1": "충청북도",
    "region2": "제천시",
    "region3": "하소동"
  },
  {
    "name": "충북 제천신백아동복지관한울타리도서관",
    "address": "충청북도 제천시 관전로 2길 6(신백동) ",
    "lat": 37.1344552312806,
    "lng": 128.229923994069,
    "region1": "충청북도",
    "region2": "제천시",
    "region3": "신백동"
  },
  {
    "name": "충북 제천하소아동복지관내보물1호도서관 ",
    "address": "충청북도 제천시 용두대로23길 26 ",
    "lat": 37.1454913543859,
    "lng": 128.196800255905,
    "region1": "충청북도",
    "region2": "제천시",
    "region3": "하소동"
  },
  {
    "name": "강원 홍천내면도서관",
    "address": "강원특별자치도 홍천군 내면 창촌로 57-11 ",
    "lat": 37.7734467227118,
    "lng": 128.3892653272,
    "region1": "강원특별자치도",
    "region2": "홍천군",
    "region3": "내면"
  },
  {
    "name": "인천 만수5동작은도서관",
    "address": "인천광역시 남동구 만경로28번길 3 만수5동 행정복지센터 3층 ",
    "lat": 37.4579513175546,
    "lng": 126.727774006412,
    "region1": "인천광역시",
    "region2": "남동구",
    "region3": "만수동"
  },
  {
    "name": "인천 간석4동작은도서관",
    "address": "인천광역시 남동구 벽돌말로19번길 7 간석4동 행정복지센터 1층 ",
    "lat": 37.4666445274808,
    "lng": 126.700759968374,
    "region1": "인천광역시",
    "region2": "남동구",
    "region3": "간석동"
  },
  {
    "name": "서울 중랑구행복터작은도서관",
    "address": "서울특별시 중랑구 답십리로81길 35 ",
    "lat": 37.5730375081556,
    "lng": 127.083400184984,
    "region1": "서울특별시",
    "region2": "중랑구",
    "region3": "면목동"
  },
  {
    "name": "충북 제천기적의도서관",
    "address": "충청북도 제천시 용두천로38길 30 ",
    "lat": 37.1552540161059,
    "lng": 128.220064537061,
    "region1": "충청북도",
    "region2": "제천시",
    "region3": "고암동"
  },
  {
    "name": "부산 서구숲속어린이작은도서관",
    "address": "부산광역시 서구 꽃마을로163번길 73 구덕문화공원 내 서구숲속놀이터 2층 ",
    "lat": 35.126413486439,
    "lng": 129.005743341034,
    "region1": "부산광역시",
    "region2": "서구",
    "region3": "서대신동3가"
  },
  {
    "name": "서울 동작구신대방누리도서관",
    "address": "서울특별시 동작구 시흥대로 606 ",
    "lat": 37.4864917793931,
    "lng": 126.905526238207,
    "region1": "서울특별시",
    "region2": "동작구",
    "region3": "신대방동"
  },
  {
    "name": "서울 용두어울림작은도서관",
    "address": "서울특별시 동대문구 무학로 89 1층 ",
    "lat": 37.5722901232255,
    "lng": 127.029916868494,
    "region1": "서울특별시",
    "region2": "동대문구",
    "region3": "용두동"
  },
  {
    "name": "전북 장수계남작은도서관",
    "address": "전북특별자치도 장수군 계남면 장수로 3066 2층 ",
    "lat": 35.7024950911529,
    "lng": 127.578011575971,
    "region1": "전북특별자치도",
    "region2": "장수군",
    "region3": "계남면"
  },
  {
    "name": "전남 목포어울림도서관",
    "address": "전라남도 목포시 용해지구로 31 목포어울림도서관 ",
    "lat": 34.816880180342,
    "lng": 126.395872656812,
    "region1": "전라남도",
    "region2": "목포시",
    "region3": "용해동"
  },
  {
    "name": "전북 군산산들도서관",
    "address": "전북특별자치도 군산시 옥구읍 옥구로 27, 산들도서관 ",
    "lat": 35.9218769949513,
    "lng": 126.683343904625,
    "region1": "전북특별자치도",
    "region2": "군산시",
    "region3": "옥구읍"
  },
  {
    "name": "전북 군산금강도서관",
    "address": "전북특별자치도 군산시 궁포3로 30 금강도서관 ",
    "lat": 35.9782155792406,
    "lng": 126.741897127565,
    "region1": "전북특별자치도",
    "region2": "군산시",
    "region3": "조촌동"
  },
  {
    "name": "강원 고성군립토성공공도서관",
    "address": "강원특별자치도 고성군 토성면 토성로 167-6 ",
    "lat": 38.2587476874513,
    "lng": 128.556163196687,
    "region1": "강원특별자치도",
    "region2": "고성군",
    "region3": "토성면"
  },
  {
    "name": "강원 고성군립간성도서관",
    "address": "강원특별자치도 고성군 간성읍 쇠롱골길 17 ",
    "lat": 38.3809807908253,
    "lng": 128.465546577322,
    "region1": "강원특별자치도",
    "region2": "고성군",
    "region3": "간성읍"
  },
  {
    "name": "강원 강릉초당작은도서관",
    "address": "강원특별자치도 강릉시 연당길 116(초당동) ",
    "lat": 37.7873324500589,
    "lng": 128.912197595615,
    "region1": "강원특별자치도",
    "region2": "강릉시",
    "region3": "초당동"
  },
  {
    "name": "강원 강릉옥거리작은도서관",
    "address": "강원특별자치도 강릉시 옥천동 136번지 ",
    "lat": 37.7582262407742,
    "lng": 128.900660113777,
    "region1": "강원특별자치도",
    "region2": "강릉시",
    "region3": "옥천동"
  },
  {
    "name": "강원 강릉어울림작은도서관",
    "address": "강원특별자치도 강릉시 포남동 1005-367 ",
    "lat": 37.7630164515216,
    "lng": 128.908400745147,
    "region1": "강원특별자치도",
    "region2": "강릉시",
    "region3": "포남동"
  },
  {
    "name": "강원 강릉월대산 작은도서관",
    "address": "강원특별자치도 강릉시 성덕포남로 80-21(입암동) ",
    "lat": 37.763156470605,
    "lng": 128.918244280296,
    "region1": "강원특별자치도",
    "region2": "강릉시",
    "region3": "입암동"
  },
  {
    "name": "강원 강릉남산작은도서관",
    "address": "강원특별자치도 강릉시 내곡동 123-8 ",
    "lat": 37.7455175233504,
    "lng": 128.891192748475,
    "region1": "강원특별자치도",
    "region2": "강릉시",
    "region3": "내곡동"
  },
  {
    "name": "대전 원신흥도서관",
    "address": "대전광역시 유성구 원신흥남로 59  ",
    "lat": 36.3377163183855,
    "lng": 127.337485798842,
    "region1": "대전광역시",
    "region2": "유성구",
    "region3": "원신흥동"
  },
  {
    "name": "울산 북구책읽는풍경작은도서관",
    "address": "울산광역시 북구 박상진3로 73, 103동 지하 커뮤니티센터(송정동, 제일풍경채) ",
    "lat": 35.6045178607883,
    "lng": 129.367986351336,
    "region1": "울산광역시",
    "region2": "북구",
    "region3": "송정동"
  },
  {
    "name": "경기 부천시립수주도서관",
    "address": "경기도 부천시 오정구 고리울로8번길 77 ",
    "lat": 37.5243322585954,
    "lng": 126.816939603353,
    "region1": "경기도",
    "region2": "부천시 오정구",
    "region3": "고강동"
  },
  {
    "name": "경기 부천시립별빛마루도서관",
    "address": "경기도 부천시 소사구 옥길로 105 ",
    "lat": 37.4667112876689,
    "lng": 126.82114949688,
    "region1": "경기도",
    "region2": "부천시 소사구",
    "region3": "옥길동"
  },
  {
    "name": "전북 고창글마루작은도서관",
    "address": "전북특별자치도 고창군 고창읍 모양성로 116-13 ",
    "lat": 35.4420909908944,
    "lng": 126.700200453402,
    "region1": "전북특별자치도",
    "region2": "고창군",
    "region3": "고창읍"
  },
  {
    "name": "전북 고창공음참나무골작은도서관",
    "address": "전북특별자치도 고창군 공음면 왕제산로 89 ",
    "lat": 35.3788981413877,
    "lng": 126.515766265863,
    "region1": "전북특별자치도",
    "region2": "고창군",
    "region3": "공음면"
  },
  {
    "name": "전북 고창흥덕가온누리작은도서관",
    "address": "전북특별자치도 고창군 흥덕면 선운대로 3774 ",
    "lat": 35.5208885396769,
    "lng": 126.703194812853,
    "region1": "전북특별자치도",
    "region2": "고창군",
    "region3": "흥덕면"
  },
  {
    "name": "전북 고창대산큰별작은도서관",
    "address": "전북특별자치도 고창군 대산면 대산시장길 19-2 ",
    "lat": 35.3405458768888,
    "lng": 126.600364940386,
    "region1": "전북특별자치도",
    "region2": "고창군",
    "region3": "대산면"
  },
  {
    "name": "전북 고창무장글샘작은도서관",
    "address": "전북특별자치도 고창군 무장면 녹두로 8 ",
    "lat": 35.4190344119844,
    "lng": 126.560987350032,
    "region1": "전북특별자치도",
    "region2": "고창군",
    "region3": "무장면"
  },
  {
    "name": "전북 고창아산선운산작은도서관",
    "address": "전북특별자치도 고창군 아산면 녹두로 786 ",
    "lat": 35.4397636303281,
    "lng": 126.634780358683,
    "region1": "전북특별자치도",
    "region2": "고창군",
    "region3": "아산면"
  },
  {
    "name": "전북 고창군고수해마루작은도서관",
    "address": "전북특별자치도 고창군 고수면 고수로 18-5 ",
    "lat": 35.4081208471523,
    "lng": 126.679764398473,
    "region1": "전북특별자치도",
    "region2": "고창군",
    "region3": "고수면"
  },
  {
    "name": "강원 강릉모루도서관",
    "address": "강원특별자치도 강릉시 교동 822번지 ",
    "lat": 37.7637982129889,
    "lng": 128.891194640263,
    "region1": "강원특별자치도",
    "region2": "강릉시",
    "region3": "교동"
  },
  {
    "name": "강원 강릉시립도서관",
    "address": "강원특별자치도 강릉시 강릉대로 448 ",
    "lat": 37.773036835648,
    "lng": 128.913033111696,
    "region1": "강원특별자치도",
    "region2": "강릉시",
    "region3": "포남동"
  },
  {
    "name": "울산 중구남외어린이도서관",
    "address": "울산광역시 중구 남외동 180-7번지 남외공영주차장, 1층 남외어린이도서관 ",
    "lat": 35.5696647117913,
    "lng": 129.348752986452,
    "region1": "울산광역시",
    "region2": "중구",
    "region3": "남외동"
  },
  {
    "name": "광주 디지털정보도서관",
    "address": "광주광역시 동구 금남로 245 3층 디지털정보도서관 ",
    "lat": 35.148358093992,
    "lng": 126.918730053407,
    "region1": "광주광역시",
    "region2": "동구",
    "region3": "금남로1가"
  },
  {
    "name": "서울 광진아차산숲속도서관",
    "address": "서울특별시 광진구 워커힐로 127 ",
    "lat": 37.5518970831819,
    "lng": 127.101245728898,
    "region1": "서울특별시",
    "region2": "광진구",
    "region3": "광장동"
  },
  {
    "name": "서울 동대문휘경행복도서관",
    "address": "서울특별시 동대문구 장안벚꽃로 323 ",
    "lat": 37.5871742821863,
    "lng": 127.069938991404,
    "region1": "서울특별시",
    "region2": "동대문구",
    "region3": "휘경동"
  },
  {
    "name": "경남 진주남부어린이도서관",
    "address": "경상남도 진주시 가호로44번길 4 ",
    "lat": 35.1633872574131,
    "lng": 128.110914858393,
    "region1": "경상남도",
    "region2": "진주시",
    "region3": "가좌동"
  },
  {
    "name": "서울 도봉원당마을한옥도서관",
    "address": "서울특별시 도봉구 해등로32가길 17 ",
    "lat": 37.6602917907669,
    "lng": 127.021798339761,
    "region1": "서울특별시",
    "region2": "도봉구",
    "region3": "방학동"
  },
  {
    "name": "제주특별자치도의회 의정자료센터",
    "address": "제주특별자치도 제주시 문연로 13,  제주특별자치도의회 의원회관 지하 1층 (연동) ",
    "lat": 33.4903640924795,
    "lng": 126.499530974211,
    "region1": "제주특별자치도",
    "region2": "제주시",
    "region3": "연동"
  },
  {
    "name": "경기 양평단월작은도서관",
    "address": "경기도 양평군 단월면 보룡길 82, 1층 단월작은도서관  ",
    "lat": 37.540870224167,
    "lng": 127.673507937592,
    "region1": "경기도",
    "region2": "양평군",
    "region3": "단월면"
  },
  {
    "name": "경기 양평개군작은도서관",
    "address": "경기도 양평군 개군면 추읍로 37  ",
    "lat": 37.4282155751935,
    "lng": 127.542239946249,
    "region1": "경기도",
    "region2": "양평군",
    "region3": "개군면"
  },
  {
    "name": "서울 강동구립북카페도서관다독다독굽은다리역점",
    "address": "서울특별시 강동구 양재대로 1548 3층 ",
    "lat": 37.5436810220846,
    "lng": 127.142488397578,
    "region1": "서울특별시",
    "region2": "강동구",
    "region3": "길동"
  },
  {
    "name": "서울 강남일원라온영어도서관",
    "address": "서울특별시 강남구 영동대로 22  일원스포츠문화센터 지하1층 ",
    "lat": 37.4910941147932,
    "lng": 127.074163955752,
    "region1": "서울특별시",
    "region2": "강남구",
    "region3": "일원동"
  },
  {
    "name": "경기 의왕시백운호수도서관",
    "address": "경기도 의왕시 백운중앙로 74 4층 ",
    "lat": 37.3700378002341,
    "lng": 127.007579832837,
    "region1": "경기도",
    "region2": "의왕시",
    "region3": "학의동"
  },
  {
    "name": "서울 광진군자동도서관",
    "address": "서울특별시 광진구 면목로 13, 군자동복합청사 1층 ",
    "lat": 37.5554852103262,
    "lng": 127.075349383615,
    "region1": "서울특별시",
    "region2": "광진구",
    "region3": "군자동"
  },
  {
    "name": "광주 북구신용도서관",
    "address": "광주광역시 북구 첨단연신로107번길 24(신용동) ",
    "lat": 35.2080957639147,
    "lng": 126.861823789512,
    "region1": "광주광역시",
    "region2": "북구",
    "region3": "신용동"
  },
  {
    "name": "전북 전주봉사자작은도서관",
    "address": "전북특별자치도 전주시 덕진구 전주천동로 455 ",
    "lat": 35.834197230044,
    "lng": 127.125529282121,
    "region1": "전북특별자치도",
    "region2": "전주시 덕진구",
    "region3": "진북동"
  },
  {
    "name": "전남 순천에듀힐스작은도서관",
    "address": "전라남도 순천시 좌야로 159-14(신대중흥S클래스 9단지) ",
    "lat": 34.9380827530137,
    "lng": 127.544258073606,
    "region1": "전라남도",
    "region2": "순천시",
    "region3": "해룡면"
  },
  {
    "name": "전남 광양금호도서관",
    "address": "전라남도 광양시 초원길 42 ",
    "lat": 34.9385803513231,
    "lng": 127.722696417729,
    "region1": "전라남도",
    "region2": "광양시",
    "region3": "금호동"
  },
  {
    "name": "인천 연수누리공원작은도서관",
    "address": "인천광역시 연수구 송도문화로 20 ",
    "lat": 37.3786205408743,
    "lng": 126.656406473688,
    "region1": "인천광역시",
    "region2": "연수구",
    "region3": "송도동"
  },
  {
    "name": "전남 광양항동마을도서관",
    "address": "전라남도 광양시 다압면 항동길 1 ",
    "lat": 35.1241759480212,
    "lng": 127.691104863737,
    "region1": "전라남도",
    "region2": "광양시",
    "region3": "다압면"
  },
  {
    "name": "전남 광양비봉마을도서관",
    "address": "전라남도 광양시 봉강면 조양길 33 ",
    "lat": 35.01121613277,
    "lng": 127.582510106872,
    "region1": "전라남도",
    "region2": "광양시",
    "region3": "봉강면"
  },
  {
    "name": "전남 광양명주마을도서관",
    "address": "전라남도 광양시 옥곡면 옥진로 658 ",
    "lat": 34.9891569704793,
    "lng": 127.699019563403,
    "region1": "전라남도",
    "region2": "광양시",
    "region3": "옥곡면"
  },
  {
    "name": "광주 북구중흥도서관",
    "address": "광주광역시 북구 당뫼로 39(중흥동) ",
    "lat": 35.1698650889654,
    "lng": 126.914308069811,
    "region1": "광주광역시",
    "region2": "북구",
    "region3": "중흥동"
  },
  {
    "name": "경남 창원최윤덕도서관",
    "address": "경상남도 창원시 의창구 북면 무동리 103-2 ",
    "lat": 35.3227970623877,
    "lng": 128.579735259465,
    "region1": "경상남도",
    "region2": "창원시 의창구",
    "region3": "북면"
  },
  {
    "name": "부산 기장군교리도서관",
    "address": "부산광역시 기장군 기장읍 차성로417번길 11 ",
    "lat": 35.2552222235619,
    "lng": 129.215526770437,
    "region1": "부산광역시",
    "region2": "기장군",
    "region3": "기장읍"
  },
  {
    "name": "부산 시청열린도서관",
    "address": "부산광역시 연제구 중앙대로 1001 ",
    "lat": 35.17992598569,
    "lng": 129.07509523457,
    "region1": "부산광역시",
    "region2": "연제구",
    "region3": "연산동"
  },
  {
    "name": "인천 동구이룸청소년도서관",
    "address": "인천광역시 동구 샛골로 144(2,3층) ",
    "lat": 37.4752044716332,
    "lng": 126.644684274394,
    "region1": "인천광역시",
    "region2": "동구",
    "region3": "송림동"
  },
  {
    "name": "제주 하늘길방음작은도서관",
    "address": "제주특별자치도 제주시 용마로2길 38 ",
    "lat": 33.5140796694799,
    "lng": 126.508028629018,
    "region1": "제주특별자치도",
    "region2": "제주시",
    "region3": "용담삼동"
  },
  {
    "name": "서울 영등포구밤동산마을도서관",
    "address": "서울특별시 영등포구 여의대방로 61길 18-2 ",
    "lat": 37.5148992894818,
    "lng": 126.924523468544,
    "region1": "서울특별시",
    "region2": "영등포구",
    "region3": "신길동"
  },
  {
    "name": "인천 연수구해찬솔공원작은도서관",
    "address": "인천광역시 연수구 새말로 120 ",
    "lat": 37.4181197668277,
    "lng": 126.682332630176,
    "region1": "인천광역시",
    "region2": "연수구",
    "region3": "연수동"
  },
  {
    "name": "경기 여주기적의도서관",
    "address": "경기도 여주시 능서면 양화로913 ",
    "lat": 37.2972015799483,
    "lng": 127.571612554591,
    "region1": "경기도",
    "region2": "여주시",
    "region3": "세종대왕면"
  },
  {
    "name": "울산 중구학성도서관",
    "address": "울산광역시 중구 구교로92 ",
    "lat": 35.5553558913513,
    "lng": 129.334317815746,
    "region1": "울산광역시",
    "region2": "중구",
    "region3": "학성동"
  },
  {
    "name": "울산 중구산전만화도서관",
    "address": "울산광역시 중구 동동 118-1  ",
    "lat": 35.5777597353938,
    "lng": 129.349193027495,
    "region1": "울산광역시",
    "region2": "중구",
    "region3": "동동"
  },
  {
    "name": "경기 양주고암작은도서관",
    "address": "경기도 양주시 고암길 251-1  ",
    "lat": 37.8345434262192,
    "lng": 127.072953436264,
    "region1": "경기도",
    "region2": "양주시",
    "region3": "고암동"
  },
  {
    "name": "전북 장수군립도서관",
    "address": "전북특별자치도 장수군 장계면 방천길 19 ",
    "lat": 35.7300600233555,
    "lng": 127.589726569935,
    "region1": "전북특별자치도",
    "region2": "장수군",
    "region3": "장계면"
  },
  {
    "name": "전북 장수작은도서관",
    "address": "전북특별자치도 장수군 장수읍 호비로 10 ",
    "lat": 35.6470045981567,
    "lng": 127.5215976583,
    "region1": "전북특별자치도",
    "region2": "장수군",
    "region3": "장수읍"
  },
  {
    "name": "전북 장수산서작은도서관",
    "address": "전북특별자치도 장수군 산서면 보산로 1862  ",
    "lat": 35.5841200783437,
    "lng": 127.396066479703,
    "region1": "전북특별자치도",
    "region2": "장수군",
    "region3": "산서면"
  },
  {
    "name": "전북 장수번암작은도서관",
    "address": "전북특별자치도 장수군 번암면 장수로 480 ",
    "lat": 35.5307503787421,
    "lng": 127.544023663844,
    "region1": "전북특별자치도",
    "region2": "장수군",
    "region3": "번암면"
  },
  {
    "name": "전북 장수계북작은도서관",
    "address": "전북특별자치도 장수군 계북면 장무로 962-11 ",
    "lat": 35.785471140606,
    "lng": 127.613614393703,
    "region1": "전북특별자치도",
    "region2": "장수군",
    "region3": "계북면"
  },
  {
    "name": "전북 익산유천도서관",
    "address": "전북특별자치도 익산시 동천로 82 ",
    "lat": 35.9286145679614,
    "lng": 126.972568526001,
    "region1": "전북특별자치도",
    "region2": "익산시",
    "region3": "동산동"
  },
  {
    "name": "인천 강화군지혜의숲도서관",
    "address": "인천광역시 강화군 선원면 창리 606-26 ",
    "lat": 37.7223428892876,
    "lng": 126.48345124413,
    "region1": "인천광역시",
    "region2": "강화군",
    "region3": "선원면"
  },
  {
    "name": "세종 연동면작은도서관",
    "address": "세종특별자치시 연동면 장욱진로 7 ",
    "lat": 36.5553423035024,
    "lng": 127.327328227063,
    "region1": "세종특별자치시",
    "region2": "",
    "region3": "연동면"
  },
  {
    "name": "울산 울산항만공사 열린도서관",
    "address": "울산광역시 남구 장생포고래로 271 4층 ",
    "lat": 35.504734507947,
    "lng": 129.382840549441,
    "region1": "울산광역시",
    "region2": "남구",
    "region3": "매암동"
  },
  {
    "name": "경기 광주양벌도서관",
    "address": "경기도 광주시 오포읍 양벌리 1106-1 ",
    "lat": 37.3792025936841,
    "lng": 127.257967757854,
    "region1": "경기도",
    "region2": "광주시",
    "region3": "양벌동"
  },
  {
    "name": "서울 영등포늘샘드리마을도서관",
    "address": "서울특별시 영등포구 도영로7길 10 ",
    "lat": 37.5094933996277,
    "lng": 126.895999582851,
    "region1": "서울특별시",
    "region2": "영등포구",
    "region3": "도림동"
  },
  {
    "name": "부산 금정북뱅크 작은도서관",
    "address": "부산광역시 금정구 금정로 75, 2층 ",
    "lat": 35.2314175171395,
    "lng": 129.086345440016,
    "region1": "부산광역시",
    "region2": "금정구",
    "region3": "장전동"
  },
  {
    "name": "충남 홍성군내포마을작은도서관",
    "address": "충청남도 홍성군 홍북읍 홍예로 364 ",
    "lat": 36.6591374725049,
    "lng": 126.687176536701,
    "region1": "충청남도",
    "region2": "홍성군",
    "region3": "홍북읍"
  },
  {
    "name": "충남 홍성군남문동작은도서관",
    "address": "충청남도 홍성군 홍성읍  ",
    "lat": 36.601469644599,
    "lng": 126.662222238465,
    "region1": "충청남도",
    "region2": "홍성군",
    "region3": "홍성읍"
  },
  {
    "name": "충남 홍성군우리함께작은도서관",
    "address": "충청남도 홍성군 홍성읍 홍성천길 144 ",
    "lat": 36.5983827421361,
    "lng": 126.664789057961,
    "region1": "충청남도",
    "region2": "홍성군",
    "region3": "홍성읍"
  },
  {
    "name": "충남 홍성군다올책사랑방작은도서관",
    "address": "충청남도 홍성군 홍북읍 청사로48번길 16-1 자경빌딩 2층 ",
    "lat": 36.6479328694346,
    "lng": 126.676305156396,
    "region1": "충청남도",
    "region2": "홍성군",
    "region3": "홍북읍"
  },
  {
    "name": "충남 홍성군경남아너스빌작은도서관",
    "address": "충청남도 홍성군 홍북읍 청사로 15 ",
    "lat": 36.6473148833881,
    "lng": 126.670165708408,
    "region1": "충청남도",
    "region2": "홍성군",
    "region3": "홍북읍"
  },
  {
    "name": "충남 홍성군롯데캐슬작은도서관",
    "address": "충청남도 홍성군 홍북읍 신대로 34 ",
    "lat": 36.6518705141132,
    "lng": 126.671750238925,
    "region1": "충청남도",
    "region2": "홍성군",
    "region3": "홍북읍"
  },
  {
    "name": "충남 홍성군모아작은도서관",
    "address": "충청남도 홍성군 홍북읍 홍학로 88 ",
    "lat": 36.6472364983261,
    "lng": 126.674033564245,
    "region1": "충청남도",
    "region2": "홍성군",
    "region3": "홍북읍"
  },
  {
    "name": "충남 홍성군밝맑도서관",
    "address": "충청남도 홍성군 홍동면 광금남로 658-7 ",
    "lat": 36.5579971993561,
    "lng": 126.685643702743,
    "region1": "충청남도",
    "region2": "홍성군",
    "region3": "홍동면"
  },
  {
    "name": "충남 홍성군LH남장3단지작은도서관",
    "address": "충청남도 홍성군 홍성읍 남장중로 10 ",
    "lat": 36.5876842219545,
    "lng": 126.669562090276,
    "region1": "충청남도",
    "region2": "홍성군",
    "region3": "홍성읍"
  },
  {
    "name": "충남 홍성군우아영작은도서관",
    "address": "충청남도 홍성군 홍성읍 아문길29번길 66-14 3층 ",
    "lat": 36.6007363461649,
    "lng": 126.664440346732,
    "region1": "충청남도",
    "region2": "홍성군",
    "region3": "홍성읍"
  },
  {
    "name": "충남 홍성군신동아작은도서관",
    "address": "충청남도 홍성군 충절로953번길 20 ",
    "lat": 36.5943499661529,
    "lng": 126.673950613844,
    "region1": "충청남도",
    "region2": "홍성군",
    "region3": "홍성읍"
  },
  {
    "name": "서울 강동북카페도서관다독다독암사시장점",
    "address": "서울특별시 강동구 암사동 500-23, 7층 ",
    "lat": 37.5513659349153,
    "lng": 127.128981707556,
    "region1": "서울특별시",
    "region2": "강동구",
    "region3": "암사동"
  },
  {
    "name": "서울 마포소금나루도서관",
    "address": "서울특별시 마포구 숭문길 72 ",
    "lat": 37.5495786624964,
    "lng": 126.946116732506,
    "region1": "서울특별시",
    "region2": "마포구",
    "region3": "염리동"
  },
  {
    "name": "경남 양산LH꿈마루작은도서관",
    "address": "경상남도  양산시 양주로 153(중부동, 주공3단지) ",
    "lat": 35.3382122021759,
    "lng": 129.031159542136,
    "region1": "경상남도",
    "region2": "양산시",
    "region3": "중부동"
  },
  {
    "name": "경남 양산우리동네작은도서관",
    "address": "경상남도  양산시 상북면 삼계1길(삼영상가 1층) ",
    "lat": 35.4171891466786,
    "lng": 129.061375056074,
    "region1": "경상남도",
    "region2": "양산시",
    "region3": "상북면"
  },
  {
    "name": "경남 양산윤현진도서관",
    "address": "경상남도  양산시 희망1길 25 ",
    "lat": 35.3477802910196,
    "lng": 129.043951233701,
    "region1": "경상남도",
    "region2": "양산시",
    "region3": "북부동"
  },
  {
    "name": "경기 용인성복도서관",
    "address": "경기도 용인시 수지구 성복1로 164번길 6 ",
    "lat": 37.3169166348194,
    "lng": 127.063168926433,
    "region1": "경기도",
    "region2": "용인시 수지구",
    "region3": "성복동"
  },
  {
    "name": "서울 까망돌도서관",
    "address": "서울특별시 동작구 흑석동 340-1 ",
    "lat": 37.505119382206,
    "lng": 126.960547576026,
    "region1": "서울특별시",
    "region2": "동작구",
    "region3": "흑석동"
  },
  {
    "name": "울산 동구남목도서관",
    "address": "울산광역시 동구 동부동 366-2 ",
    "lat": 35.5452293496944,
    "lng": 129.426771687018,
    "region1": "울산광역시",
    "region2": "동구",
    "region3": "동부동"
  },
  {
    "name": "부산 금정스포원어린이작은도서관",
    "address": "부산광역시 금정구 체육공원로 399번길 324 ",
    "lat": 35.289121735171,
    "lng": 129.107042158715,
    "region1": "부산광역시",
    "region2": "금정구",
    "region3": "두구동"
  },
  {
    "name": "서울 강동구북카페도서관다독다독고덕점",
    "address": "서울특별시 강동구 고덕동 225-2 ",
    "lat": 37.5603836740244,
    "lng": 127.164035062024,
    "region1": "서울특별시",
    "region2": "강동구",
    "region3": "고덕동"
  },
  {
    "name": "부산 강서신호작은도서관 아이들꿈자람터",
    "address": "부산광역시 강서구 르노삼성대로 14 본관 1층 ",
    "lat": 35.0886444634068,
    "lng": 128.872530327573,
    "region1": "부산광역시",
    "region2": "강서구",
    "region3": "신호동"
  },
  {
    "name": "부산 강서아이꿈작은도서관",
    "address": "부산광역시 강서구 명지국제6로318번길 58 강서구육아종합지원센터 2층 ",
    "lat": 35.1008902502039,
    "lng": 128.925574273694,
    "region1": "부산광역시",
    "region2": "강서구",
    "region3": "명지동"
  },
  {
    "name": "부산 사상구주례2동작은도서관",
    "address": "부산광역시 사상구 주례로10번길 15 (주례동) ",
    "lat": 35.1500655900195,
    "lng": 129.010420557503,
    "region1": "부산광역시",
    "region2": "사상구",
    "region3": "주례동"
  },
  {
    "name": "서울 도봉구김근태기념도서관",
    "address": "서울특별시 도봉구 도봉산길 14(도봉동279) ",
    "lat": 37.6876674374375,
    "lng": 127.044019937677,
    "region1": "서울특별시",
    "region2": "도봉구",
    "region3": "도봉동"
  },
  {
    "name": "경기 용인서농도서관",
    "address": "경기도 용인시 기흥구 서천동 748 ",
    "lat": 37.2377912654592,
    "lng": 127.069141018582,
    "region1": "경기도",
    "region2": "용인시 기흥구",
    "region3": "서천동"
  },
  {
    "name": "세종 시립도서관",
    "address": "세종특별자치시 세종로 1207 ",
    "lat": 36.5105124653034,
    "lng": 127.240560891936,
    "region1": "세종특별자치시",
    "region2": "",
    "region3": "고운동"
  },
  {
    "name": "세종 반곡동도서관",
    "address": "세종특별자치시 반곡로 39 ",
    "lat": 36.4986833441251,
    "lng": 127.310668005513,
    "region1": "세종특별자치시",
    "region2": "",
    "region3": "반곡동"
  },
  {
    "name": "세종 해밀동도서관",
    "address": "세종특별자치시 해밀1로 45 ",
    "lat": 36.5268944041718,
    "lng": 127.26828969772,
    "region1": "세종특별자치시",
    "region2": "",
    "region3": "해밀동"
  },
  {
    "name": "경기 김포시마산도서관",
    "address": "경기도 김포시 김포한강7로22번길174-6, 마산도서관(마산동) ",
    "lat": 37.6424282555987,
    "lng": 126.639694090496,
    "region1": "경기도",
    "region2": "김포시",
    "region3": "마산동"
  },
  {
    "name": "전남 곡성심청골작은도서관",
    "address": "전라남도 곡성군 입면 송전로 9-6 ",
    "lat": 35.3054909942713,
    "lng": 127.185157956393,
    "region1": "전라남도",
    "region2": "곡성군",
    "region3": "입면"
  },
  {
    "name": "전남 곡성길작은도서관",
    "address": "전라남도 곡성군 입면 서봉탑동길 68-1 ",
    "lat": 35.3046159643831,
    "lng": 127.210925420029,
    "region1": "전라남도",
    "region2": "곡성군",
    "region3": "입면"
  },
  {
    "name": "전남 곡성죽곡농민열린도서관",
    "address": "전라남도 곡성군 죽곡면 오죽로 20-10 ",
    "lat": 35.1504400190932,
    "lng": 127.320812657328,
    "region1": "전라남도",
    "region2": "곡성군",
    "region3": "죽곡면"
  },
  {
    "name": "전남 곡성책담작은도서관",
    "address": "전라남도 곡성군 겸면 초곡길 59 ",
    "lat": 35.2612205888809,
    "lng": 127.203096642484,
    "region1": "전라남도",
    "region2": "곡성군",
    "region3": "겸면"
  },
  {
    "name": "전남 곡성석청작은도서관",
    "address": "전라남도 곡성군 석곡면 석곡4길 6 ",
    "lat": 35.1317754962158,
    "lng": 127.254000806259,
    "region1": "전라남도",
    "region2": "곡성군",
    "region3": "석곡면"
  },
  {
    "name": "경남 양산이지더원5차작은도서관",
    "address": "경상남도  양산시 물금읍 물금로 57 이지더원5차 아파트 커뮤니티센터 B1 ",
    "lat": 35.312288054921,
    "lng": 128.989139886406,
    "region1": "경상남도",
    "region2": "양산시",
    "region3": "물금읍"
  },
  {
    "name": "경남 양산가온작은도서관",
    "address": "경상남도  양산시 물금읍 새실로 115, 지하1층 ",
    "lat": 35.3138329326279,
    "lng": 128.999951644553,
    "region1": "경상남도",
    "region2": "양산시",
    "region3": "물금읍"
  },
  {
    "name": "경남 양산동양산우성작은도서관",
    "address": "경상남도  양산시 덕계회야길 16 동양산우성스마트시티뷰 104동 1층 ",
    "lat": 35.3714567302223,
    "lng": 129.145412756554,
    "region1": "경상남도",
    "region2": "양산시",
    "region3": "덕계동"
  },
  {
    "name": "경남 양산아이비북스작은도서관",
    "address": "경상남도  양산시 동면 금오13길 38, 남양산반도유보라6차 커뮤니티센터 1층 ",
    "lat": 35.3180072381485,
    "lng": 129.027016812786,
    "region1": "경상남도",
    "region2": "양산시",
    "region3": "동면"
  },
  {
    "name": "경남 거제시립아주도서관",
    "address": "경상남도 거제시 탑곡로 73 ",
    "lat": 34.8620957047523,
    "lng": 128.690621440577,
    "region1": "경상남도",
    "region2": "거제시",
    "region3": "아주동"
  },
  {
    "name": "경기 화성시서연이음터도서관",
    "address": "경기도 화성시 동탄순환대로8길 57 ",
    "lat": 37.1605899346645,
    "lng": 127.109656787874,
    "region1": "경기도",
    "region2": "화성시",
    "region3": "장지동"
  },
  {
    "name": "인천 연수구솔안공원작은도서관",
    "address": "인천광역시 연수구 원인재로 170 ",
    "lat": 37.4123192234594,
    "lng": 126.682841148861,
    "region1": "인천광역시",
    "region2": "연수구",
    "region3": "연수동"
  },
  {
    "name": "인천 송도5동작은도서관",
    "address": "인천광역시 연수구 새말로 120 ",
    "lat": 37.4181197668277,
    "lng": 126.682332630176,
    "region1": "인천광역시",
    "region2": "연수구",
    "region3": "연수동"
  },
  {
    "name": "서울 구로구기적의도서관",
    "address": "서울특별시 구로구 구로중앙로40길 24 ",
    "lat": 37.5067351295793,
    "lng": 126.877375885107,
    "region1": "서울특별시",
    "region2": "구로구",
    "region3": "신도림동"
  },
  {
    "name": "전남 여수시국동작은도서관",
    "address": "전라남도 여수시 동문로 99 ",
    "lat": 34.7456400633272,
    "lng": 127.742114844807,
    "region1": "전라남도",
    "region2": "여수시",
    "region3": "공화동"
  },
  {
    "name": "충북 음성맹동혁신도서관",
    "address": "충청북도 음성군 맹동면 사예2길 37 ",
    "lat": 36.9139145211937,
    "lng": 127.544675564513,
    "region1": "충청북도",
    "region2": "음성군",
    "region3": "맹동면"
  },
  {
    "name": "경기 성남시사랑나무작은도서관",
    "address": "경기도 성남시 중원구 금상로 54-1(4층) ",
    "lat": 37.4400223564497,
    "lng": 127.162408865987,
    "region1": "경기도",
    "region2": "성남시 중원구",
    "region3": "상대원동"
  },
  {
    "name": "울산 남구철새마을도서관",
    "address": "울산광역시 남구 삼호로 149번길 22 ",
    "lat": 35.5489324612875,
    "lng": 129.280094153528,
    "region1": "울산광역시",
    "region2": "남구",
    "region3": "무거동"
  },
  {
    "name": "경기 화성시노을빛도서관",
    "address": "경기도 화성시 병점노을로 19 ",
    "lat": 37.2012851294196,
    "lng": 127.030132527133,
    "region1": "경기도",
    "region2": "화성시",
    "region3": "병점동"
  },
  {
    "name": "경기 하남시일가도서관",
    "address": "경기도 하남시 미사강변남로 10 ",
    "lat": 37.5586015786254,
    "lng": 127.183338528831,
    "region1": "경기도",
    "region2": "하남시",
    "region3": "풍산동"
  },
  {
    "name": "경기 의정부음악도서관",
    "address": "경기도 의정부시 장곡로 280 ",
    "lat": 37.7284820262169,
    "lng": 127.053778608969,
    "region1": "경기도",
    "region2": "의정부시",
    "region3": "신곡동"
  },
  {
    "name": "부산 금정구서역작은도서관",
    "address": "부산광역시 금정구 금정로 233번길 46(구서역 2층) ",
    "lat": 35.2472673132823,
    "lng": 129.091293977961,
    "region1": "부산광역시",
    "region2": "금정구",
    "region3": "구서동"
  },
  {
    "name": "충북 생거진천혁신도시도서관",
    "address": "충청북도 진천군 덕산읍 대하로 52 ",
    "lat": 36.8990186644217,
    "lng": 127.527463835448,
    "region1": "충청북도",
    "region2": "진천군",
    "region3": "덕산읍"
  },
  {
    "name": "충북 진천군립광혜원도서관",
    "address": "충청북도 진천군 광혜원면 화랑길 72 ",
    "lat": 36.9944009695818,
    "lng": 127.435902058574,
    "region1": "충청북도",
    "region2": "진천군",
    "region3": "광혜원면"
  },
  {
    "name": "충북 진천군립도서관",
    "address": "충청북도 진천군 진천읍 포석길 37-6 ",
    "lat": 36.8565424233795,
    "lng": 127.438543718257,
    "region1": "충청북도",
    "region2": "진천군",
    "region3": "진천읍"
  },
  {
    "name": "경남 양산아이비파크5작은도서관",
    "address": "경상남도  양산시 동면 금오16길 100(이치더원3차) ",
    "lat": 35.3229027811154,
    "lng": 129.027185112305,
    "region1": "경상남도",
    "region2": "양산시",
    "region3": "동면"
  },
  {
    "name": "강원 원주한지테마파크작은도서관",
    "address": "강원특별자치도 원주시 한지공원길 151 ",
    "lat": 37.3343755264909,
    "lng": 127.935395728281,
    "region1": "강원특별자치도",
    "region2": "원주시",
    "region3": "무실동"
  },
  {
    "name": "강원 원주부론면작은도서관",
    "address": "강원특별자치도 원주시 법천시장길 59 ",
    "lat": 37.2078310011559,
    "lng": 127.750180546646,
    "region1": "강원특별자치도",
    "region2": "원주시",
    "region3": "부론면"
  },
  {
    "name": "부산 금정구금샘도서관",
    "address": "부산광역시 금정구 기찰로 94(부곡동) ",
    "lat": 35.2390053442827,
    "lng": 129.093930232029,
    "region1": "부산광역시",
    "region2": "금정구",
    "region3": "부곡동"
  },
  {
    "name": "강원 평창방림계촌도서관",
    "address": "강원특별자치도 평창군 방림면 계촌길 101 ",
    "lat": 37.4523443208238,
    "lng": 128.306015649981,
    "region1": "강원특별자치도",
    "region2": "평창군",
    "region3": "방림면"
  },
  {
    "name": "강원 평창꿈여울도서관",
    "address": "강원특별자치도 평창군 미탄면 새터길 24 ",
    "lat": 37.342796219019,
    "lng": 128.500195862729,
    "region1": "강원특별자치도",
    "region2": "평창군",
    "region3": "미탄면"
  },
  {
    "name": "강원 평창군립대관령도서관",
    "address": "강원특별자치도 평창군 대관령면 대관령로 83-2 ",
    "lat": 37.6739773434967,
    "lng": 128.705803217162,
    "region1": "강원특별자치도",
    "region2": "평창군",
    "region3": "대관령면"
  },
  {
    "name": "강원 평창군립봉평도서관",
    "address": "강원특별자치도 평창군 봉평면 기풍4길 10 ",
    "lat": 37.6161007027632,
    "lng": 128.37932486804,
    "region1": "강원특별자치도",
    "region2": "평창군",
    "region3": "봉평면"
  },
  {
    "name": "강원 평창군립진부도서관",
    "address": "강원특별자치도 평창군 진부면 석두로 12-8 ",
    "lat": 37.635347409858,
    "lng": 128.554362411439,
    "region1": "강원특별자치도",
    "region2": "평창군",
    "region3": "진부면"
  },
  {
    "name": "강원 평창군립대화도서관",
    "address": "강원특별자치도 평창군 대화면 남산2길 27 ",
    "lat": 37.5014887652037,
    "lng": 128.45802109538,
    "region1": "강원특별자치도",
    "region2": "평창군",
    "region3": "대화면"
  },
  {
    "name": "부산 수영구어린이도서관",
    "address": "부산광역시 수영구 장대골로 75-6(광안동) ",
    "lat": 35.1597471541169,
    "lng": 129.10499435963,
    "region1": "부산광역시",
    "region2": "수영구",
    "region3": "광안동"
  },
  {
    "name": "전남 순천시카페휴작은도서관",
    "address": "전라남도 순천시 서면 청소년수련원길 2 ",
    "lat": 35.0064560711216,
    "lng": 127.479586707367,
    "region1": "전라남도",
    "region2": "순천시",
    "region3": "서면"
  },
  {
    "name": "전남 순천시파려안작은도서관",
    "address": "전라남도 순천시 중앙로 179 ",
    "lat": 34.9616719999509,
    "lng": 127.484306149549,
    "region1": "전라남도",
    "region2": "순천시",
    "region3": "매곡동"
  },
  {
    "name": "경기 동두천두드림마켓작은도서관",
    "address": "경기도 동두천시 평화로 2539 보산역 1층 ",
    "lat": 37.9143185033452,
    "lng": 127.057237110508,
    "region1": "경기도",
    "region2": "동두천시",
    "region3": "보산동"
  },
  {
    "name": "경기 화성시왕배푸른숲도서관",
    "address": "경기도 화성시 동탄대로12길 102 ",
    "lat": 37.1792487863656,
    "lng": 127.113335120084,
    "region1": "경기도",
    "region2": "화성시",
    "region3": "산척동"
  },
  {
    "name": "경기 하남시위례도서관",
    "address": "경기도 하남시 위례대로 230(학암동) ",
    "lat": 37.48216725879,
    "lng": 127.148350706994,
    "region1": "경기도",
    "region2": "하남시",
    "region3": "학암동"
  },
  {
    "name": "전남 여수시여문늘벗작은도서관",
    "address": "전라남도 여수시 장군산길 7 ",
    "lat": 34.7552316069999,
    "lng": 127.710377324642,
    "region1": "전라남도",
    "region2": "여수시",
    "region3": "여서동"
  },
  {
    "name": "전남 여수시화양열린작은도서관",
    "address": "전라남도 여수시 화양면 화양로 1436-5 ",
    "lat": 34.7100764139438,
    "lng": 127.617365976725,
    "region1": "전라남도",
    "region2": "여수시",
    "region3": "화양면"
  },
  {
    "name": "전남 여수시청솔글누리작은도서관",
    "address": "전라남도 여수시 돌산읍 강남동로 46-25 ",
    "lat": 34.7170887382048,
    "lng": 127.757368921612,
    "region1": "전라남도",
    "region2": "여수시",
    "region3": "돌산읍"
  },
  {
    "name": "전남 여수시꿈을키우는작은도서관",
    "address": "전라남도 여수시 양지1길 5 ",
    "lat": 34.7708235880098,
    "lng": 127.701856422032,
    "region1": "전라남도",
    "region2": "여수시",
    "region3": "미평동"
  },
  {
    "name": "전남 여수시은빛바다작은도서관",
    "address": "전라남도 여수시 삼산면 거문길 103 ",
    "lat": 34.0276457534687,
    "lng": 127.308801205096,
    "region1": "전라남도",
    "region2": "여수시",
    "region3": "삼산면"
  },
  {
    "name": "전남 여수시치매안심센터작은도서관",
    "address": "전라남도 여수시 신월로 794 ",
    "lat": 34.7391591434989,
    "lng": 127.72604928091,
    "region1": "전라남도",
    "region2": "여수시",
    "region3": "봉강동"
  },
  {
    "name": "전남 여수시동부도시보건작은도서관",
    "address": "전라남도 여수시 동문로 99 ",
    "lat": 34.7456400633272,
    "lng": 127.742114844807,
    "region1": "전라남도",
    "region2": "여수시",
    "region3": "공화동"
  },